,상호명,지점명,대분류,중분류,소분류,시도명,시군구명,행정동명,법정동명,지번주소,경도,위도
367,메가마트물류센터,,소매,종합소매점,수퍼마켓,서울특별시,금천구,시흥3동,시흥동,서울특별시 금천구 시흥동 984-33,126.90156067882299,37.44079088740521
441,훼밀리마트,신사중앙점,소매,종합소매점,수퍼마켓,서울특별시,강남구,압구정동,신사동,서울특별시 강남구 신사동 588-14,127.031232578429,37.5215513704072
478,양평슈퍼,,소매,종합소매점,수퍼마켓,서울특별시,광진구,군자동,군자동,서울특별시 광진구 군자동 349-9,127.07003971426,37.5512916803243
591,롯데슈퍼,행당점,소매,종합소매점,수퍼마켓,서울특별시,성동구,행당1동,행당동,서울특별시 성동구 행당동 140,127.03545581750299,37.5581685449559
791,제일슈퍼,,소매,종합소매점,수퍼마켓,서울특별시,금천구,시흥4동,시흥동,서울특별시 금천구 시흥동 817-29,126.907510765982,37.4559206637157
806,뉴디즈니,,소매,종합소매점,수퍼마켓,서울특별시,구로구,오류2동,오류동,서울특별시 구로구 오류동 297-6,126.837768263329,37.487593818712895
1037,아시아마트,,소매,종합소매점,수퍼마켓,서울특별시,금천구,가산동,가산동,서울특별시 금천구 가산동 148-12,126.895453380427,37.475712777963096
1203,에이스힐인마트,,소매,종합소매점,수퍼마켓,서울특별시,서초구,서초1동,서초동,서울특별시 서초구 서초동 1638-11,127.019549316577,37.494522481755794
1237,삼성마트,,소매,종합소매점,수퍼마켓,서울특별시,강남구,삼성2동,삼성동,서울특별시 강남구 삼성동 34-25,127.043225318433,37.512602556396104
1270,롯데쇼핑롯데마켓999점,,소매,종합소매점,수퍼마켓,서울특별시,강남구,역삼2동,역삼동,서울특별시 강남구 역삼동 770-11,127.041909982548,37.4969225450619
1693,장한평유통,,소매,종합소매점,수퍼마켓,서울특별시,동대문구,장안1동,장안동,서울특별시 동대문구 장안동 166-1,127.06651999108699,37.5694380548118
1826,롯데슈퍼,쌍문4동가맹점,소매,종합소매점,수퍼마켓,서울특별시,도봉구,쌍문4동,쌍문동,서울특별시 도봉구 쌍문동 311,127.02878304880899,37.65098396885529
1842,하나수퍼,,소매,종합소매점,수퍼마켓,서울특별시,양천구,신정3동,신정동,서울특별시 양천구 신정동 1197-1,126.848824288038,37.5216532786636
2082,홈플러스익스프레스도화점,도화점,소매,종합소매점,수퍼마켓,서울특별시,마포구,도화동,도화동,서울특별시 마포구 도화동 353,126.951112706768,37.53870769240179
2214,태왕식품코사마트,,소매,종합소매점,수퍼마켓,서울특별시,성동구,왕십리도선동,도선동,서울특별시 성동구 도선동 210,127.03384068037701,37.5631651561696
2413,관악드림마트,,소매,종합소매점,수퍼마켓,서울특별시,관악구,성현동,봉천동,서울특별시 관악구 봉천동 1712,126.952972416923,37.4898423775944
2415,수협바다마트신도림점,신도림점,소매,종합소매점,수퍼마켓,서울특별시,구로구,신도림동,신도림동,서울특별시 구로구 신도림동 644,126.885177066432,37.5091441600635
2495,하나로마트,청담점,소매,종합소매점,수퍼마켓,서울특별시,강남구,역삼2동,역삼동,서울특별시 강남구 역삼동 708-4,127.048144102601,37.5038299791161
2529,하모니마트정육점,,소매,종합소매점,수퍼마켓,서울특별시,금천구,가산동,가산동,서울특별시 금천구 가산동 151-30,126.89314187016701,37.476060576026
2577,다채할인마트,,소매,종합소매점,수퍼마켓,서울특별시,강북구,삼각산동,미아동,서울특별시 강북구 미아동 887-5,127.01547604524299,37.619418569166
2786,홈플러스익스프레스,중곡점,소매,종합소매점,수퍼마켓,서울특별시,광진구,중곡2동,중곡동,서울특별시 광진구 중곡동 157-1,127.080023129923,37.5576141668195
3041,올림픽마트,,소매,종합소매점,수퍼마켓,서울특별시,광진구,구의1동,구의동,서울특별시 광진구 구의동 251-126,127.08405745497801,37.5396335151877
3104,내츄랜드아시아점,아시아점,소매,종합소매점,수퍼마켓,서울특별시,송파구,잠실7동,잠실동,서울특별시 송파구 잠실동 85,127.076702140859,37.5084357864704
3129,새마을마트,,소매,종합소매점,수퍼마켓,서울특별시,마포구,망원1동,망원동,서울특별시 마포구 망원동 457-2,126.90195382023,37.5537136197396
3160,풀마트,,소매,종합소매점,수퍼마켓,서울특별시,성동구,마장동,마장동,서울특별시 성동구 마장동 478-38,127.037340699252,37.5700146623168
3339,수방사헌병단마트,,소매,종합소매점,수퍼마켓,서울특별시,관악구,남현동,남현동,서울특별시 관악구 남현동 산100-14,126.987256235772,37.4665336035466
3761,롯데마켓999,,소매,종합소매점,수퍼마켓,서울특별시,강남구,대치2동,대치동,서울특별시 강남구 대치동 1000-12,127.065706936393,37.507610463891204
3861,승가슈퍼,,소매,종합소매점,수퍼마켓,서울특별시,성북구,안암동,안암동5가,서울특별시 성북구 안암동5가 12-81,127.029362158548,37.589033425591396
3989,삼양미니슈퍼,,소매,종합소매점,수퍼마켓,서울특별시,동대문구,이문1동,이문동,서울특별시 동대문구 이문동 115-37,127.06601237489201,37.5982945099964
4082,현진할인마트,,소매,종합소매점,수퍼마켓,서울특별시,강서구,공항동,공항동,서울특별시 강서구 공항동 59-37,126.811162172817,37.5574295806848
4303,건영슈퍼,,소매,종합소매점,수퍼마켓,서울특별시,노원구,상계3.4동,상계동,서울특별시 노원구 상계동 1321,127.05600363448099,37.6778304378934
4457,한신그린마트,,소매,종합소매점,수퍼마켓,서울특별시,동대문구,청량리동,청량리동,서울특별시 동대문구 청량리동 60,127.049212981348,37.5880236430842
4480,삼양인현슈퍼마켓,,소매,종합소매점,수퍼마켓,서울특별시,중구,광희동,인현동2가,서울특별시 중구 인현동2가 190-1,126.995365537903,37.5632765214697
4581,후암시장할인마트,,소매,종합소매점,수퍼마켓,서울특별시,용산구,후암동,후암동,서울특별시 용산구 후암동 102-35,126.97596027657801,37.550360041223705
4658,GS수퍼마켓송파점,송파점,소매,종합소매점,수퍼마켓,서울특별시,송파구,가락2동,가락동,서울특별시 송파구 가락동 140,127.129842372307,37.494656499197795
4678,대산유통슈퍼,,소매,종합소매점,수퍼마켓,서울특별시,강남구,수서동,수서동,서울특별시 강남구 수서동 707,127.09973459784901,37.492133193609796
5128,동산하이퍼마켓,,소매,종합소매점,수퍼마켓,서울특별시,관악구,행운동,봉천동,서울특별시 관악구 봉천동 1684-24,126.962863216662,37.4786574556132
5133,MARKET999,목동점,소매,종합소매점,수퍼마켓,서울특별시,양천구,신정4동,신정동,서울특별시 양천구 신정동 899-7,126.863712457563,37.528320981918895
6377,보성그린마트,,소매,종합소매점,수퍼마켓,서울특별시,강북구,수유2동,수유동,서울특별시 강북구 수유동 270-185,127.019997544159,37.6460277159035
6402,현대마트,,소매,종합소매점,수퍼마켓,서울특별시,동대문구,이문2동,이문동,서울특별시 동대문구 이문동 54,127.069746597231,37.60125239119839
6418,형제슈퍼,,소매,종합소매점,수퍼마켓,서울특별시,광진구,중곡3동,중곡동,서울특별시 광진구 중곡동 175-35,127.081781898925,37.569242380355504
6439,동아마트,,소매,종합소매점,수퍼마켓,서울특별시,광진구,중곡2동,중곡동,서울특별시 광진구 중곡동 48-14,127.081664318049,37.559456074547896
6517,약수수퍼,,소매,종합소매점,수퍼마켓,서울특별시,도봉구,방학2동,방학동,서울특별시 도봉구 방학동 608,127.029762889547,37.6688684896716
6724,부강슈퍼마전,,소매,종합소매점,수퍼마켓,서울특별시,강북구,인수동,수유동,서울특별시 강북구 수유동 313-3,127.014998151186,37.644472344964
6875,온누리슈퍼,,소매,종합소매점,수퍼마켓,서울특별시,구로구,오류2동,오류동,서울특별시 구로구 오류동 187-5,126.83784056498999,37.48876588471111
6888,길슈퍼,,소매,종합소매점,수퍼마켓,서울특별시,영등포구,여의동,여의도동,서울특별시 영등포구 여의도동 42,126.932463671705,37.52213256913971
6925,은혜슈퍼,,소매,종합소매점,수퍼마켓,서울특별시,양천구,신정4동,신정동,서울특별시 양천구 신정동 939-18,126.850404912024,37.5262819888858
6941,신성마트,,소매,종합소매점,수퍼마켓,서울특별시,영등포구,대림3동,대림동,서울특별시 영등포구 대림동 743-4,126.899672466264,37.4987018185303
7028,한영슈퍼,,소매,종합소매점,수퍼마켓,서울특별시,관악구,난곡동,신림동,서울특별시 관악구 신림동 610-576,126.92340318139401,37.4755833087303
7171,영진하이퍼마켓,,소매,종합소매점,수퍼마켓,서울특별시,강서구,가양1동,마곡동,서울특별시 강서구 마곡동 326-9,126.822581566407,37.5725641798311
7210,왕마트,,소매,종합소매점,수퍼마켓,서울특별시,구로구,고척1동,고척동,서울특별시 구로구 고척동 145-100,126.855900071096,37.5012954570933
7348,K-SUPER,,소매,종합소매점,수퍼마켓,서울특별시,광진구,구의2동,구의동,서울특별시 광진구 구의동 26-20,127.09357799722,37.553312868172895
7526,화남슈퍼,,소매,종합소매점,수퍼마켓,서울특별시,마포구,신수동,구수동,서울특별시 마포구 구수동 59-1,126.93257293443199,37.5462184323029
8077,서서울농협하나로마트,신사점,소매,종합소매점,수퍼마켓,서울특별시,은평구,신사1동,신사동,서울특별시 은평구 신사동 7-10,126.910490322274,37.6008987990421
8224,한강슈퍼마트,,소매,종합소매점,수퍼마켓,서울특별시,영등포구,영등포동,영등포동2가,서울특별시 영등포구 영등포동2가 94-24,126.90997498281,37.522828193707106
8358,약수식품,,소매,종합소매점,수퍼마켓,서울특별시,중구,다산동,신당동,서울특별시 중구 신당동 432-716,127.007311564309,37.5501502321143
8526,이레마트,,소매,종합소매점,수퍼마켓,서울특별시,영등포구,신길7동,신길동,서울특별시 영등포구 신길동 1052,126.922046106072,37.5062966880267
8633,현대슈퍼마켓,,소매,종합소매점,수퍼마켓,서울특별시,강동구,천호3동,천호동,서울특별시 강동구 천호동 199-1,127.13307329600799,37.5418867393238
8744,홈플러스익스프레스,암사점,소매,종합소매점,수퍼마켓,서울특별시,강동구,암사1동,암사동,서울특별시 강동구 암사동 473-3,127.135057138955,37.5523535238072
8784,홈플러스익스프레스서울논현역점,서울논현역점,소매,종합소매점,수퍼마켓,서울특별시,서초구,반포1동,반포동,서울특별시 서초구 반포동 705,127.019535386215,37.5102908104763
8830,한진마트,,소매,종합소매점,수퍼마켓,서울특별시,성북구,삼선동,돈암동,서울특별시 성북구 돈암동 609-1,127.012690860711,37.5944635800327
8890,우리홈마트,,소매,종합소매점,수퍼마켓,서울특별시,구로구,구로5동,구로동,서울특별시 구로구 구로동 40-5,126.89096874316799,37.503756378284294
9062,롯데슈퍼원효로점내회코너,,소매,종합소매점,수퍼마켓,서울특별시,용산구,원효로1동,원효로1가,서울특별시 용산구 원효로1가 133-3,126.967960705689,37.53792806619779
9118,롯데슈퍼등촌점,등촌점,소매,종합소매점,수퍼마켓,서울특별시,강서구,등촌3동,등촌동,서울특별시 강서구 등촌동 662-3,126.84781710533599,37.5584417374009
9193,보뚜슈퍼푸드카페,홍대1호점,소매,종합소매점,수퍼마켓,서울특별시,마포구,서교동,서교동,서울특별시 마포구 서교동 486,126.923740133733,37.5537159971347
9276,맷앤폴,,소매,종합소매점,수퍼마켓,서울특별시,강남구,역삼1동,역삼동,서울특별시 강남구 역삼동 641-20,127.035972362216,37.5022265098643
9337,로이언스,,소매,종합소매점,수퍼마켓,서울특별시,서초구,서초2동,서초동,서울특별시 서초구 서초동 1330-16,127.028459434094,37.4937400915713
9477,싱싱마트,,소매,종합소매점,수퍼마켓,서울특별시,관악구,중앙동,봉천동,서울특별시 관악구 봉천동 886-16,126.94809726925199,37.483491712184204
9627,진로마트,,소매,종합소매점,수퍼마켓,서울특별시,광진구,중곡3동,중곡동,서울특별시 광진구 중곡동 579-1,127.08102557405898,37.570912444629705
9696,GS수퍼마켓,목동오거리점,소매,종합소매점,수퍼마켓,서울특별시,양천구,신정4동,신정동,서울특별시 양천구 신정동 988-5,126.861119762837,37.5254667465306
9761,우성할인마트,,소매,종합소매점,수퍼마켓,서울특별시,성북구,정릉1동,정릉동,서울특별시 성북구 정릉동 1020,127.014453025656,37.6008036042171
9913,사랑마트,,소매,종합소매점,수퍼마켓,서울특별시,광진구,자양2동,자양동,서울특별시 광진구 자양동 641,127.079480522316,37.5290285706041
9914,뉴타운마트,,소매,종합소매점,수퍼마켓,서울특별시,성북구,길음1동,길음동,서울특별시 성북구 길음동 1280-1,127.016200034585,37.6100358023957
10021,오성인터내셔날,,소매,종합소매점,수퍼마켓,서울특별시,종로구,평창동,구기동,서울특별시 종로구 구기동 110-1,126.956559609636,37.608180990149606
10062,경신슈퍼,,소매,종합소매점,수퍼마켓,서울특별시,중랑구,중화2동,중화동,서울특별시 중랑구 중화동 331-2,127.075535540662,37.602928766143606
10112,현대슈퍼,,소매,종합소매점,수퍼마켓,서울특별시,중랑구,묵1동,묵동,서울특별시 중랑구 묵동 20,127.090104814928,37.6173865890558
10184,고려할인마트,,소매,종합소매점,수퍼마켓,서울특별시,금천구,시흥4동,시흥동,서울특별시 금천구 시흥동 817-29,126.907510765982,37.4559206637157
10197,한아름슈퍼,,소매,종합소매점,수퍼마켓,서울특별시,관악구,삼성동,신림동,서울특별시 관악구 신림동 808-497,126.93171660726001,37.469765887681106
10258,쌍문공판장,,소매,종합소매점,수퍼마켓,서울특별시,강북구,수유3동,수유동,서울특별시 강북구 수유동 169-35,127.02772175557199,37.6428569195708
10511,자연마트,,소매,종합소매점,수퍼마켓,서울특별시,성동구,왕십리도선동,도선동,서울특별시 성동구 도선동 343-8,127.03101714841999,37.564430510943204
11017,양지슈퍼,,소매,종합소매점,수퍼마켓,서울특별시,용산구,한남동,한남동,서울특별시 용산구 한남동 557-4,127.006502222661,37.5301221514057
11053,슈퍼라이트케이스,,소매,종합소매점,수퍼마켓,서울특별시,성북구,성북동,성북동1가,서울특별시 성북구 성북동1가 110-9,127.00340077170601,37.589709106407
11308,수퍼쿨러파트너스,,소매,종합소매점,수퍼마켓,서울특별시,강남구,대치2동,대치동,서울특별시 강남구 대치동 999,127.066287855613,37.5081917333628
11382,수퍼에이트레이드,,소매,종합소매점,수퍼마켓,서울특별시,노원구,월계3동,월계동,서울특별시 노원구 월계동 13,127.064764059105,37.62382913158329
11636,24시미니수퍼,,소매,종합소매점,수퍼마켓,서울특별시,구로구,구로3동,구로동,서울특별시 구로구 구로동 147-6,126.893593614137,37.490661774231796
11647,공작스토어,,소매,종합소매점,수퍼마켓,서울특별시,영등포구,여의동,여의도동,서울특별시 영등포구 여의도동 21-4,126.930756150723,37.526045675175794
11721,다이소,,소매,종합소매점,수퍼마켓,서울특별시,성동구,금호4가동,금호동4가,서울특별시 성동구 금호동4가 572,127.021533036111,37.5478721550781
11892,양지슈퍼,,소매,종합소매점,수퍼마켓,서울특별시,강서구,화곡2동,화곡동,서울특별시 강서구 화곡동 856-8,126.854928720027,37.5300832657398
11910,365플러스편의점,,소매,종합소매점,수퍼마켓,서울특별시,성동구,성수1가2동,성수동1가,서울특별시 성동구 성수동1가 13-157,127.04901301280701,37.5476551614449
11949,SM마트,,소매,종합소매점,수퍼마켓,서울특별시,성북구,석관동,석관동,서울특별시 성북구 석관동 409,127.059403133529,37.6051530130864
11956,한아름마트,,소매,종합소매점,수퍼마켓,서울특별시,관악구,청림동,봉천동,서울특별시 관악구 봉천동 1001,126.960612336512,37.4934149306333
12117,롯데슈퍼,이문점,소매,종합소매점,수퍼마켓,서울특별시,동대문구,이문1동,이문동,서울특별시 동대문구 이문동 324-10,127.05938795475099,37.594664761851604
12307,홈플러스익스프레스서울뚝섬2점,서울뚝섬2점,소매,종합소매점,수퍼마켓,서울특별시,성동구,성수1가2동,성수동1가,서울특별시 성동구 성수동1가 656-1208,127.044329955337,37.5474912047504
12327,미가도수입마트,,소매,종합소매점,수퍼마켓,서울특별시,동대문구,이문2동,이문동,서울특별시 동대문구 이문동 358-8,127.062194133302,37.604760745511996
12500,준서네슈퍼,,소매,종합소매점,수퍼마켓,서울특별시,구로구,가리봉동,가리봉동,서울특별시 구로구 가리봉동 107-44,126.88934944044901,37.4840352995821
12835,행복힐인마트,,소매,종합소매점,수퍼마켓,서울특별시,서초구,방배2동,방배동,서울특별시 서초구 방배동 942-8,126.99025105655599,37.4850849409329
12836,기쁜가게,,소매,종합소매점,수퍼마켓,서울특별시,동대문구,휘경2동,휘경동,서울특별시 동대문구 휘경동 286-89,127.06074963639,37.5881340301899
13104,대우수퍼,,소매,종합소매점,수퍼마켓,서울특별시,성동구,금호4가동,금호동4가,서울특별시 성동구 금호동4가 800,127.017911204956,37.5453191541497
13203,세광슈퍼,,소매,종합소매점,수퍼마켓,서울특별시,금천구,독산1동,독산동,서울특별시 금천구 독산동 1007-1,126.895096445309,37.4661673284306
13340,진로할인마트,,소매,종합소매점,수퍼마켓,서울특별시,은평구,갈현2동,갈현동,서울특별시 은평구 갈현동 469-1,126.91427797909799,37.6130075160321
13341,하모니마트,,소매,종합소매점,수퍼마켓,서울특별시,서초구,양재1동,양재동,서울특별시 서초구 양재동 6-1,127.040818952345,37.4823075517234
13420,코사마트,뉴타운점,소매,종합소매점,수퍼마켓,서울특별시,성동구,행당1동,행당동,서울특별시 성동구 행당동 299-1,127.031995594179,37.560546019491504
13636,대화마트,,소매,종합소매점,수퍼마켓,서울특별시,금천구,독산1동,독산동,서울특별시 금천구 독산동 296-16,126.89689592561199,37.4714102297919
13672,수협바다마트,상계점,소매,종합소매점,수퍼마켓,서울특별시,노원구,중계4동,중계동,서울특별시 노원구 중계동 591,127.073266115542,37.6598475788814
13733,롯데쇼핑롯데슈퍼내,,소매,종합소매점,수퍼마켓,서울특별시,송파구,잠실3동,잠실동,서울특별시 송파구 잠실동 35,127.090269078215,37.5080094298205
14242,홈플러스익스프레스,서초점,소매,종합소매점,수퍼마켓,서울특별시,서초구,서초4동,서초동,서울특별시 서초구 서초동 1685-3,127.013720064845,37.497501501602
14256,롯데쇼핑,롯데슈퍼점,소매,종합소매점,수퍼마켓,서울특별시,서대문구,홍은2동,홍은동,서울특별시 서대문구 홍은동 277-98,126.935843357915,37.582028197209794
14375,남산마트,,소매,종합소매점,수퍼마켓,서울특별시,중구,명동,남산동1가,서울특별시 중구 남산동1가 14-5,126.984516088773,37.558696505902
14409,제이씨마트,,소매,종합소매점,수퍼마켓,서울특별시,강남구,대치1동,대치동,서울특별시 강남구 대치동 626,127.05914706933399,37.4931595049826
14628,대흥슈퍼,,소매,종합소매점,수퍼마켓,서울특별시,금천구,시흥4동,시흥동,서울특별시 금천구 시흥동 817-35,126.90723124858,37.4557108372436
15294,롯데쇼핑롯데슈퍼점,롯데슈퍼점,소매,종합소매점,수퍼마켓,서울특별시,강서구,발산1동,내발산동,서울특별시 강서구 내발산동 689-1,126.830598815534,37.5528572445761
15371,롯데쇼핑롯데수퍼,상도3동점,소매,종합소매점,수퍼마켓,서울특별시,동작구,상도3동,상도동,서울특별시 동작구 상도동 188-14,126.93578744790199,37.5031685103018
15384,롯데슈퍼,목동점,소매,종합소매점,수퍼마켓,서울특별시,양천구,신정4동,신정동,서울특별시 양천구 신정동 899-7,126.863712457563,37.528320981918895
15455,종점수퍼,,소매,종합소매점,수퍼마켓,서울특별시,노원구,중계본동,중계동,서울특별시 노원구 중계동 27-25,127.08350872562299,37.6444297883669
15643,감사원매점,,소매,종합소매점,수퍼마켓,서울특별시,종로구,삼청동,삼청동,서울특별시 종로구 삼청동 25-23,126.984435602227,37.5871326658755
15660,녹천매점,,소매,종합소매점,수퍼마켓,서울특별시,노원구,월계2동,월계동,서울특별시 노원구 월계동 748-10,127.05144067499201,37.6435365715132
15838,롯데쇼핑롯데Market역촌2점,,소매,종합소매점,수퍼마켓,서울특별시,은평구,역촌동,역촌동,서울특별시 은평구 역촌동 74-2,126.908301658232,37.6049782634772
15947,알뜰슈퍼,,소매,종합소매점,수퍼마켓,서울특별시,성북구,월곡1동,하월곡동,서울특별시 성북구 하월곡동 90-1490,127.033775553775,37.606748054857796
16013,대농슈퍼,,소매,종합소매점,수퍼마켓,서울특별시,노원구,중계본동,중계동,서울특별시 노원구 중계동 579,127.081385232154,37.649396004694
16158,우리슈퍼,,소매,종합소매점,수퍼마켓,서울특별시,노원구,월계2동,월계동,서울특별시 노원구 월계동 600,127.05619859928998,37.6293023139357
16357,신월마트,,소매,종합소매점,수퍼마켓,서울특별시,양천구,신월5동,신월동,서울특별시 양천구 신월동 80-1,126.82873259917801,37.5368724412934
16522,영락식품,,소매,종합소매점,수퍼마켓,서울특별시,중구,필동,충무로3가,서울특별시 중구 충무로3가 24-16,126.990467604114,37.563036511118604
16565,동신마트,,소매,종합소매점,수퍼마켓,서울특별시,강서구,가양1동,가양동,서울특별시 강서구 가양동 1459,126.842265164572,37.5712631593585
16602,서교수퍼,,소매,종합소매점,수퍼마켓,서울특별시,마포구,서교동,서교동,서울특별시 마포구 서교동 395-68,126.91721073747601,37.5497457875972
16634,롯데마트나들가게,,소매,종합소매점,수퍼마켓,서울특별시,강서구,화곡6동,화곡동,서울특별시 강서구 화곡동 1100-10,126.84927055458,37.554455326632294
16651,KS할인마트,,소매,종합소매점,수퍼마켓,서울특별시,강남구,역삼1동,역삼동,서울특별시 강남구 역삼동 826-30,127.03033963769899,37.49613432667179
16734,성전슈퍼,,소매,종합소매점,수퍼마켓,서울특별시,구로구,구로4동,구로동,서울특별시 구로구 구로동 139-5,126.89007151830299,37.4925479630178
16784,현대마트,,소매,종합소매점,수퍼마켓,서울특별시,마포구,성산1동,성산동,서울특별시 마포구 성산동 244-9,126.911927546583,37.5589598929679
16832,웅이네할인마트,,소매,종합소매점,수퍼마켓,서울특별시,송파구,송파2동,송파동,서울특별시 송파구 송파동 103-33,127.112838434769,37.502873852791204
16845,수방사통신단마트,,소매,종합소매점,수퍼마켓,서울특별시,관악구,남현동,남현동,서울특별시 관악구 남현동 산100-14,126.987256235772,37.4665336035466
17222,신세계마트,,소매,종합소매점,수퍼마켓,서울특별시,구로구,신도림동,신도림동,서울특별시 구로구 신도림동 402-3,126.877537930819,37.505656860436
17230,싱싱할인마트,,소매,종합소매점,수퍼마켓,서울특별시,광진구,중곡2동,중곡동,서울특별시 광진구 중곡동 150-232,127.08486144891701,37.5599494450469
17250,슈퍼문방구,,소매,종합소매점,수퍼마켓,서울특별시,강동구,길동,길동,서울특별시 강동구 길동 375-11,127.13784324111299,37.5394077152275
17252,강일할인마트,,소매,종합소매점,수퍼마켓,서울특별시,강동구,강일동,상일동,서울특별시 강동구 상일동 490,127.174770207328,37.5513582588433
17301,하나로마트쇼핑,,소매,종합소매점,수퍼마켓,서울특별시,광진구,중곡2동,중곡동,서울특별시 광진구 중곡동 341-18,127.081238942214,37.5572271721526
17382,은마알뜰장,,소매,종합소매점,수퍼마켓,서울특별시,강남구,대치2동,대치동,서울특별시 강남구 대치동 991-1,127.063884759838,37.4995495995986
17537,그린마트,,소매,종합소매점,수퍼마켓,서울특별시,중랑구,신내2동,신내동,서울특별시 중랑구 신내동 661,127.09397247692301,37.606702952276294
17556,파워할인마트,월계점,소매,종합소매점,수퍼마켓,서울특별시,노원구,월계3동,월계동,서울특별시 노원구 월계동 17,127.066818389436,37.622610972751296
17648,우림슈퍼,,소매,종합소매점,수퍼마켓,서울특별시,노원구,상계1동,상계동,서울특별시 노원구 상계동 1090-20,127.05145879764099,37.674180841529605
17661,성수슈퍼,,소매,종합소매점,수퍼마켓,서울특별시,노원구,공릉2동,공릉동,서울특별시 노원구 공릉동 409-1,127.077648429375,37.6253361715303
17703,한국유통슈퍼센터,,소매,종합소매점,수퍼마켓,서울특별시,도봉구,도봉2동,도봉동,서울특별시 도봉구 도봉동 63,127.04839425617399,37.683355667288396
18367,우성마트,,소매,종합소매점,수퍼마켓,서울특별시,동작구,신대방1동,신대방동,서울특별시 동작구 신대방동 565,126.91179346089599,37.491083117040404
18543,은성슈퍼,,소매,종합소매점,수퍼마켓,서울특별시,영등포구,문래동,문래동4가,서울특별시 영등포구 문래동4가 30-3,126.888905835408,37.515504614592295
18720,만수직판장,,소매,종합소매점,수퍼마켓,서울특별시,중랑구,면목3.8동,면목동,서울특별시 중랑구 면목동 5-6,127.09922279921899,37.5883167716733
18798,한사랑마트,,소매,종합소매점,수퍼마켓,서울특별시,강서구,등촌1동,등촌동,서울특별시 강서구 등촌동 632-4,126.86391653655701,37.5551377867426
18805,신라슈퍼,,소매,종합소매점,수퍼마켓,서울특별시,양천구,신정3동,신정동,서울특별시 양천구 신정동 1158-27,126.850476818809,37.5164343407991
19340,대천마트,,소매,종합소매점,수퍼마켓,서울특별시,영등포구,여의동,여의도동,서울특별시 영등포구 여의도동 53-12,126.93354635230699,37.5183940034199
19349,하모니마트응봉점,응봉점,소매,종합소매점,수퍼마켓,서울특별시,성동구,응봉동,응봉동,서울특별시 성동구 응봉동 100,127.034040177261,37.553849966823705
19362,삼운웰빙마트,,소매,종합소매점,수퍼마켓,서울특별시,강동구,암사1동,암사동,서울특별시 강동구 암사동 473,127.133823002707,37.552398540045296
19367,홈플러스익스프레스,서울구의2점,소매,종합소매점,수퍼마켓,서울특별시,광진구,구의3동,구의동,서울특별시 광진구 구의동 212-3,127.09408463640301,37.540440718514105
19524,을지마트,,소매,종합소매점,수퍼마켓,서울특별시,중구,을지로동,저동2가,서울특별시 중구 저동2가 78,126.98957642461201,37.5653265459148
19566,장성슈퍼,,소매,종합소매점,수퍼마켓,서울특별시,강북구,번1동,번동,서울특별시 강북구 번동 410-69,127.03123221220301,37.636046948150295
19611,신미니슈퍼,,소매,종합소매점,수퍼마켓,서울특별시,광진구,화양동,화양동,서울특별시 광진구 화양동 45-15,127.066752537906,37.543534731484
19713,동남슈퍼,,소매,종합소매점,수퍼마켓,서울특별시,노원구,상계6.7동,상계동,서울특별시 노원구 상계동 740,127.05904772049699,37.650427335415
20249,홈플러스익스프레스도곡2점,도곡2점,소매,종합소매점,수퍼마켓,서울특별시,강남구,도곡2동,도곡동,서울특별시 강남구 도곡동 518-8,127.043346500891,37.482715499608105
20630,365할인마트,,소매,종합소매점,수퍼마켓,서울특별시,중랑구,신내1동,신내동,서울특별시 중랑구 신내동 397,127.09639941210399,37.6101815655706
20786,길훈미니슈퍼,,소매,종합소매점,수퍼마켓,서울특별시,양천구,신월7동,신월동,서울특별시 양천구 신월동 341-1,126.831341448937,37.5234097901794
21358,홈플러스익스프레스대치점,대치점,소매,종합소매점,수퍼마켓,서울특별시,강남구,대치1동,대치동,서울특별시 강남구 대치동 1021-3,127.059752648791,37.498075091042104
22166,럭키슈퍼나들가게,나들가게,소매,종합소매점,수퍼마켓,서울특별시,용산구,후암동,후암동,서울특별시 용산구 후암동 446,126.976720198752,37.5543762728788
22183,현대슈퍼,,소매,종합소매점,수퍼마켓,서울특별시,광진구,군자동,군자동,서울특별시 광진구 군자동 102-1,127.071978099854,37.5528657479805
22438,GS수퍼마켓공릉점,공릉점,소매,종합소매점,수퍼마켓,서울특별시,노원구,공릉2동,공릉동,서울특별시 노원구 공릉동 90-4,127.086639052799,37.6219821545308
22780,홈플러스익스프레스뚝섬점,뚝섬점,소매,종합소매점,수퍼마켓,서울특별시,성동구,성수1가2동,성수동1가,서울특별시 성동구 성수동1가 14-17,127.04895393305,37.546960877655295
22897,장보고,,소매,종합소매점,수퍼마켓,서울특별시,관악구,낙성대동,봉천동,서울특별시 관악구 봉천동 1613-9,126.95553197428002,37.4781874000604
22976,엘지슈퍼렛,,소매,종합소매점,수퍼마켓,서울특별시,강서구,등촌3동,등촌동,서울특별시 강서구 등촌동 697,126.84633809386601,37.561139401141205
23004,온누리유통,,소매,종합소매점,수퍼마켓,서울특별시,성북구,장위3동,장위동,서울특별시 성북구 장위동 36-22,127.057539813622,37.6145990728239
23124,진양슈퍼,,소매,종합소매점,수퍼마켓,서울특별시,금천구,가산동,가산동,서울특별시 금천구 가산동 32-12,126.882259315791,37.48407655873871
23319,관악수퍼마켓협동조합,,소매,종합소매점,수퍼마켓,서울특별시,관악구,난곡동,신림동,서울특별시 관악구 신림동 610-140,126.922811294067,37.47507332557
23416,청청마트,,소매,종합소매점,수퍼마켓,서울특별시,용산구,한남동,한남동,서울특별시 용산구 한남동 738-1,126.999927340379,37.53700472516871
23482,성심슈퍼마켓,,소매,종합소매점,수퍼마켓,서울특별시,성북구,장위1동,장위동,서울특별시 성북구 장위동 233-85,127.04716459563299,37.612803779634106
23549,대림그린마트,,소매,종합소매점,수퍼마켓,서울특별시,성북구,정릉4동,정릉동,서울특별시 성북구 정릉동 1028,127.010958190159,37.615001752023296
23661,성진마트,,소매,종합소매점,수퍼마켓,서울특별시,성북구,정릉2동,정릉동,서울특별시 성북구 정릉동 674-3,127.003888685359,37.6083196689768
23696,오마트,,소매,종합소매점,수퍼마켓,서울특별시,강북구,번1동,번동,서울특별시 강북구 번동 466-1,127.03115244373699,37.6413173444446
23762,청계슈퍼,,소매,종합소매점,수퍼마켓,서울특별시,강북구,인수동,수유동,서울특별시 강북구 수유동 312-18,127.014302227514,37.6439709645213
23777,덕수슈퍼,,소매,종합소매점,수퍼마켓,서울특별시,성북구,성북동,성북동,서울특별시 성북구 성북동 119-1,126.99572028781799,37.5941762318282
23835,건영슈퍼,,소매,종합소매점,수퍼마켓,서울특별시,금천구,시흥5동,시흥동,서울특별시 금천구 시흥동 384-12,126.91048434423,37.4496227226785
23839,현수슈퍼,,소매,종합소매점,수퍼마켓,서울특별시,구로구,개봉1동,개봉동,서울특별시 구로구 개봉동 452-7,126.855591424431,37.5007698630771
24074,현대수퍼,,소매,종합소매점,수퍼마켓,서울특별시,성동구,용답동,용답동,서울특별시 성동구 용답동 80-2,127.052728368883,37.5652644759911
24122,두리마트,,소매,종합소매점,수퍼마켓,서울특별시,중랑구,묵2동,묵동,서울특별시 중랑구 묵동 249-11,127.075772764021,37.6057238559976
24268,부발슈퍼,,소매,종합소매점,수퍼마켓,서울특별시,동대문구,제기동,제기동,서울특별시 동대문구 제기동 153,127.031555448952,37.5831766459295
24358,농심가슈퍼,,소매,종합소매점,수퍼마켓,서울특별시,구로구,구로1동,구로동,서울특별시 구로구 구로동 685-215,126.87577446994801,37.4920163096612
24488,럭키수퍼마트청담점,청담점,소매,종합소매점,수퍼마켓,서울특별시,강남구,청담동,청담동,서울특별시 강남구 청담동 134-20,127.05760294292,37.522440520842096
24612,가양5단지슈퍼마켓,,소매,종합소매점,수퍼마켓,서울특별시,강서구,가양2동,가양동,서울특별시 강서구 가양동 1481,126.85350612296101,37.5646151318736
24666,금강슈퍼,,소매,종합소매점,수퍼마켓,서울특별시,도봉구,쌍문1동,쌍문동,서울특별시 도봉구 쌍문동 519-3,127.01522831112801,37.6579356762332
24765,대림마트슈퍼마켓,,소매,종합소매점,수퍼마켓,서울특별시,은평구,녹번동,녹번동,서울특별시 은평구 녹번동 276,126.937141413869,37.6006192284281
24855,초안할인마트,,소매,종합소매점,수퍼마켓,서울특별시,노원구,월계2동,월계동,서울특별시 노원구 월계동 924,127.04328747720899,37.6307481140594
24887,우물슈퍼,,소매,종합소매점,수퍼마켓,서울특별시,강북구,송천동,미아동,서울특별시 강북구 미아동 403-16,127.023157802974,37.6175632030447
24984,지에스리테일GS수퍼관악난향점,난향점,소매,종합소매점,수퍼마켓,서울특별시,관악구,난향동,신림동,서울특별시 관악구 신림동 1735,126.920736747794,37.4597365125495
25013,일미상회,,소매,종합소매점,수퍼마켓,서울특별시,영등포구,도림동,도림동,서울특별시 영등포구 도림동 187-80,126.898353663612,37.5107184718215
25304,빅마켓,도봉점,소매,종합소매점,수퍼마켓,서울특별시,도봉구,방학1동,방학동,서울특별시 도봉구 방학동 717-6,127.04554565111201,37.667654727278794
25586,신길할인마트,,소매,종합소매점,수퍼마켓,서울특별시,영등포구,신길5동,신길동,서울특별시 영등포구 신길동 441-2,126.90683879785101,37.4981826738816
25593,동산마트,,소매,종합소매점,수퍼마켓,서울특별시,강남구,역삼1동,역삼동,서울특별시 강남구 역삼동 645-3,127.03364787397,37.5018110527203
25683,등마루하이퍼마케트,,소매,종합소매점,수퍼마켓,서울특별시,강서구,등촌1동,등촌동,서울특별시 강서구 등촌동 637-10,126.860249154992,37.556652218626
25860,GS25,북가좌점,소매,종합소매점,수퍼마켓,서울특별시,서대문구,북가좌2동,북가좌동,서울특별시 서대문구 북가좌동 306-17,126.91009003791201,37.5778737113867
25893,아라코,,소매,종합소매점,수퍼마켓,서울특별시,중구,회현동,남대문로5가,서울특별시 중구 남대문로5가 526,126.97513986945499,37.5565521000357
26039,영신마트,,소매,종합소매점,수퍼마켓,서울특별시,구로구,개봉3동,개봉동,서울특별시 구로구 개봉동 356-8,126.851900283708,37.486272313084704
26123,이마트에브리데이,,소매,종합소매점,수퍼마켓,서울특별시,성동구,성수1가2동,성수동1가,서울특별시 성동구 성수동1가 14-17,127.04895393305,37.546960877655295
26143,이편한마트,,소매,종합소매점,수퍼마켓,서울특별시,광진구,구의2동,구의동,서울특별시 광진구 구의동 64-41,127.08891135026501,37.5471137585604
26369,지에스,묵동현대점,소매,종합소매점,수퍼마켓,서울특별시,중랑구,묵2동,묵동,서울특별시 중랑구 묵동 377,127.074313655241,37.6092264837925
26398,영진할인마트,,소매,종합소매점,수퍼마켓,서울특별시,구로구,구로4동,구로동,서울특별시 구로구 구로동 129-45,126.892261299382,37.4935866986503
26466,나비슈퍼,,소매,종합소매점,수퍼마켓,서울특별시,구로구,오류1동,오류동,서울특별시 구로구 오류동 14-401,126.840187155483,37.4971596221514
26502,롯데슈퍼,사당점,소매,종합소매점,수퍼마켓,서울특별시,동작구,사당1동,사당동,서울특별시 동작구 사당동 1042-19,126.981275239769,37.477430018677104
26506,해나온마트,자양점,소매,종합소매점,수퍼마켓,서울특별시,광진구,자양3동,자양동,서울특별시 광진구 자양동 580-13,127.07538653821899,37.533474824751295
26562,롯데슈퍼,정릉점,소매,종합소매점,수퍼마켓,서울특별시,성북구,정릉1동,정릉동,서울특별시 성북구 정릉동 1034,127.017727287567,37.603281727220505
26576,한아름마트,,소매,종합소매점,수퍼마켓,서울특별시,성북구,종암동,종암동,서울특별시 성북구 종암동 3-640,127.036686743468,37.5988066590742
26584,지에스영동초교점,영동초교점,소매,종합소매점,수퍼마켓,서울특별시,영등포구,영등포동,영등포동8가,서울특별시 영등포구 영등포동8가 48-1,126.906393489592,37.5271561279123
26602,K마트,,소매,종합소매점,수퍼마켓,서울특별시,성북구,길음2동,길음동,서울특별시 성북구 길음동 1070-27,127.02533056684901,37.6047053347835
26638,동서울농협하나로마트,망우점,소매,종합소매점,수퍼마켓,서울특별시,중랑구,망우본동,망우동,서울특별시 중랑구 망우동 147-9,127.10568302034201,37.60105262217439
26792,중앙슈퍼,,소매,종합소매점,수퍼마켓,서울특별시,광진구,자양3동,자양동,서울특별시 광진구 자양동 553-139,127.067338315835,37.53466399989421
26819,동양제일할인마트,,소매,종합소매점,수퍼마켓,서울특별시,동대문구,휘경1동,휘경동,서울특별시 동대문구 휘경동 112-39,127.067620620962,37.5919278388934
26900,임마누엘마트,,소매,종합소매점,수퍼마켓,서울특별시,금천구,독산1동,독산동,서울특별시 금천구 독산동 1088-1,126.886387562624,37.4573273674861
26926,아세아매점,,소매,종합소매점,수퍼마켓,서울특별시,강남구,역삼2동,역삼동,서울특별시 강남구 역삼동 726,127.038343676273,37.4989930277736
26927,지에스수퍼신사점,신사점,소매,종합소매점,수퍼마켓,서울특별시,강남구,신사동,신사동,서울특별시 강남구 신사동 568-11,127.02554002990802,37.5234598212391
26935,롯데슈퍼,도곡점,소매,종합소매점,수퍼마켓,서울특별시,강남구,도곡2동,도곡동,서울특별시 강남구 도곡동 464,127.049740964687,37.4875967771917
27304,대성슈퍼,,소매,종합소매점,수퍼마켓,서울특별시,동대문구,장안2동,장안동,서울특별시 동대문구 장안동 143-38,127.06860397996701,37.572986619285004
27545,중앙농협하나로마트중앙농협,중앙농협,소매,종합소매점,수퍼마켓,서울특별시,광진구,자양1동,자양동,서울특별시 광진구 자양동 635-8,127.08076897296499,37.5319039579194
27562,ING마트,,소매,종합소매점,수퍼마켓,서울특별시,구로구,구로3동,구로동,서울특별시 구로구 구로동 1129-14,126.89740059290399,37.4809210042269
28205,롯데슈퍼천왕점,천왕점,소매,종합소매점,수퍼마켓,서울특별시,구로구,오류2동,천왕동,서울특별시 구로구 천왕동 96-11,126.83976528897101,37.4805672933402
28652,홈플러스익스프레스등촌점,등촌점,소매,종합소매점,수퍼마켓,서울특별시,강서구,등촌3동,등촌동,서울특별시 강서구 등촌동 699,126.846307690863,37.560174999687
28726,대호마트,,소매,종합소매점,수퍼마켓,서울특별시,관악구,행운동,봉천동,서울특별시 관악구 봉천동 30-3,126.955532855111,37.4838099754065
28824,현대할인마트,,소매,종합소매점,수퍼마켓,서울특별시,강동구,둔촌2동,둔촌동,서울특별시 강동구 둔촌동 41-3,127.145411698827,37.5316235312927
28825,홈플러스익스프레스,발산점,소매,종합소매점,수퍼마켓,서울특별시,강서구,발산1동,내발산동,서울특별시 강서구 내발산동 750-10,126.826749107573,37.5529722273111
28925,다경24시,,소매,종합소매점,수퍼마켓,서울특별시,관악구,낙성대동,봉천동,서울특별시 관악구 봉천동 1609-4,126.955041712829,37.4776694649171
29298,낭뜨,,소매,종합소매점,수퍼마켓,서울특별시,중랑구,망우본동,망우동,서울특별시 중랑구 망우동 516-40,127.093385508806,37.59440820100129
29402,진솔코퍼레이션,,소매,종합소매점,수퍼마켓,서울특별시,구로구,구로4동,구로동,서울특별시 구로구 구로동 314,126.88959202775101,37.4913270451925
29404,기성물류,,소매,종합소매점,수퍼마켓,서울특별시,중구,회현동,회현동1가,서울특별시 중구 회현동1가 117-8,126.98144353969,37.5565886291848
29445,이마트에브리데이남부터미널점,남부터미널점,소매,종합소매점,수퍼마켓,서울특별시,서초구,서초1동,서초동,서울특별시 서초구 서초동 1443-17,127.020727851924,37.485674877730105
29449,롯데슈퍼잠실점회코너,,소매,종합소매점,수퍼마켓,서울특별시,송파구,잠실6동,신천동,서울특별시 송파구 신천동 7-18,127.100564812841,37.5143686501931
29535,슈퍼텍스,,소매,종합소매점,수퍼마켓,서울특별시,광진구,광장동,광장동,서울특별시 광진구 광장동 326-15,127.10653067543501,37.5471853195127
29741,중앙공판장,,소매,종합소매점,수퍼마켓,서울특별시,영등포구,당산1동,당산동1가,서울특별시 영등포구 당산동1가 223-20,126.898385391435,37.5231801890992
29744,럭키슈퍼렛,,소매,종합소매점,수퍼마켓,서울특별시,광진구,중곡2동,중곡동,서울특별시 광진구 중곡동 125-11,127.086997735251,37.55926316539271
29868,슈퍼미디어,,소매,종합소매점,수퍼마켓,서울특별시,강남구,논현2동,논현동,서울특별시 강남구 논현동 61-11,127.03111769301701,37.5199375448566
30011,진성유통할인매장,,소매,종합소매점,수퍼마켓,서울특별시,도봉구,창2동,창동,서울특별시 도봉구 창동 581-19,127.038322272507,37.6406461687913
30068,빅사이즈클럽,,소매,종합소매점,수퍼마켓,서울특별시,성북구,정릉4동,정릉동,서울특별시 성북구 정릉동 266-96,127.01020907916201,37.6125536616097
30144,연신유통,,소매,종합소매점,수퍼마켓,서울특별시,서초구,서초3동,서초동,서울특별시 서초구 서초동 1457-1,127.014197798445,37.4843861241449
30192,필레오통상,,소매,종합소매점,수퍼마켓,서울특별시,용산구,한남동,한남동,서울특별시 용산구 한남동 726-116,127.00404715431601,37.5411753510315
30441,그린필에이스,,소매,종합소매점,수퍼마켓,서울특별시,영등포구,양평2동,양평동6가,서울특별시 영등포구 양평동6가 100,126.889964785921,37.542518749798106
30551,영마트,,소매,종합소매점,수퍼마켓,서울특별시,성북구,동선동,동선동3가,서울특별시 성북구 동선동3가 1,127.019214576227,37.5943738053048
30576,옹달샘,,소매,종합소매점,수퍼마켓,서울특별시,마포구,서강동,상수동,서울특별시 마포구 상수동 72-1,126.92492187126999,37.552600464148504
30633,씨엔이코리아,,소매,종합소매점,수퍼마켓,서울특별시,강남구,역삼1동,역삼동,서울특별시 강남구 역삼동 837-16,127.03232732661101,37.4919607144071
30825,굿모닝마트,,소매,종합소매점,수퍼마켓,서울특별시,서대문구,충현동,충정로3가,서울특별시 서대문구 충정로3가 465,126.964845533717,37.560273698660104
30872,웰빙마켓,,소매,종합소매점,수퍼마켓,서울특별시,구로구,고척2동,고척동,서울특별시 구로구 고척동 271-128,126.85181390437401,37.502255964980705
30908,에스마트,,소매,종합소매점,수퍼마켓,서울특별시,노원구,월계2동,월계동,서울특별시 노원구 월계동 556,127.056633619371,37.6289453778409
30932,유한슈퍼,,소매,종합소매점,수퍼마켓,서울특별시,강북구,수유1동,수유동,서울특별시 강북구 수유동 468-78,127.013798954606,37.63232540826979
30936,서울북부수퍼마켓,,소매,종합소매점,수퍼마켓,서울특별시,도봉구,창1동,창동,서울특별시 도봉구 창동 665-3,127.038159911549,37.6488442544521
30958,풍림슈퍼,,소매,종합소매점,수퍼마켓,서울특별시,서대문구,홍은1동,홍은동,서울특별시 서대문구 홍은동 453-2,126.94202444264201,37.5932746227964
31113,아트다락,,소매,종합소매점,수퍼마켓,서울특별시,관악구,보라매동,봉천동,서울특별시 관악구 봉천동 673-8,126.933716155601,37.4905531733395
31238,잰글로벌,,소매,종합소매점,수퍼마켓,서울특별시,관악구,신원동,신림동,서울특별시 관악구 신림동 412-127,126.92994980476101,37.4755436637619
31310,행복중심서울동북소비자생활협동,,소매,종합소매점,수퍼마켓,서울특별시,노원구,중계1동,중계동,서울특별시 노원구 중계동 360-15,127.075904196053,37.6490918965234
31321,뉴타임슈퍼,,소매,종합소매점,수퍼마켓,서울특별시,용산구,이촌1동,이촌동,서울특별시 용산구 이촌동 301-152,126.974654679977,37.520911544754
31332,효성수퍼마켓,,소매,종합소매점,수퍼마켓,서울특별시,성북구,월곡1동,하월곡동,서울특별시 성북구 하월곡동 70-1,127.035229785288,37.6072735447625
31358,하나로하이마켓,,소매,종합소매점,수퍼마켓,서울특별시,동작구,사당3동,사당동,서울특별시 동작구 사당동 160-11,126.97716453357201,37.485377842996705
31373,현대아이파크할인마트,,소매,종합소매점,수퍼마켓,서울특별시,중랑구,묵2동,묵동,서울특별시 중랑구 묵동 385,127.073457384219,37.610688461791796
31433,대흥마트,,소매,종합소매점,수퍼마켓,서울특별시,금천구,시흥4동,시흥동,서울특별시 금천구 시흥동 817-29,126.907510765982,37.4559206637157
31511,벽산마트,,소매,종합소매점,수퍼마켓,서울특별시,금천구,시흥2동,시흥동,서울특별시 금천구 시흥동 1013,126.92000966443001,37.4497732267369
31698,우성마트,,소매,종합소매점,수퍼마켓,서울특별시,도봉구,방학3동,방학동,서울특별시 도봉구 방학동 507,127.02413923788001,37.65772140237971
31707,에브리데이리테일이클럽,,소매,종합소매점,수퍼마켓,서울특별시,성동구,성수2가1동,성수동2가,서울특별시 성동구 성수동2가 333-16,127.052889552846,37.540009372535295
31754,롯데쇼핑롯데슈퍼창동2,,소매,종합소매점,수퍼마켓,서울특별시,도봉구,창5동,창동,서울특별시 도봉구 창동 269-4,127.043723469816,37.6550705732599
31786,하나쇼핑,,소매,종합소매점,수퍼마켓,서울특별시,중구,청구동,신당동,서울특별시 중구 신당동 843,127.018428340312,37.5585237852673
31837,로그인,,소매,종합소매점,수퍼마켓,서울특별시,금천구,시흥4동,시흥동,서울특별시 금천구 시흥동 817-29,126.907510765982,37.4559206637157
31901,곰마트,,소매,종합소매점,수퍼마켓,서울특별시,금천구,시흥4동,시흥동,서울특별시 금천구 시흥동 817-29,126.907510765982,37.4559206637157
31904,금복슈퍼,,소매,종합소매점,수퍼마켓,서울특별시,동대문구,답십리2동,답십리동,서울특별시 동대문구 답십리동 12-47,127.05987769571101,37.566529027158296
31934,버들슈퍼,,소매,종합소매점,수퍼마켓,서울특별시,금천구,시흥4동,시흥동,서울특별시 금천구 시흥동 817-29,126.907510765982,37.4559206637157
32084,샤론,,소매,종합소매점,수퍼마켓,서울특별시,강남구,논현2동,논현동,서울특별시 강남구 논현동 217,127.032596314545,37.5123087373811
32279,오마트,,소매,종합소매점,수퍼마켓,서울특별시,금천구,시흥4동,시흥동,서울특별시 금천구 시흥동 837,126.90632354967899,37.453621008664896
32607,지엠내츄럴,,소매,종합소매점,수퍼마켓,서울특별시,양천구,목1동,목동,서울특별시 양천구 목동 933,126.876345527246,37.5225760915585
32613,슈퍼드림넷,,소매,종합소매점,수퍼마켓,서울특별시,강남구,역삼1동,역삼동,서울특별시 강남구 역삼동 688-5,127.040375543671,37.5072451964937
32675,국민남영마트,,소매,종합소매점,수퍼마켓,서울특별시,용산구,효창동,효창동,서울특별시 용산구 효창동 3-197,126.96297278361,37.5475795998735
32792,올그린마트,,소매,종합소매점,수퍼마켓,서울특별시,노원구,월계1동,월계동,서울특별시 노원구 월계동 85,127.06174954476299,37.6230212962796
32891,텃밭마트,,소매,종합소매점,수퍼마켓,서울특별시,노원구,상계6.7동,상계동,서울특별시 노원구 상계동 746-5,127.061323154885,37.6497156250821
32894,쉬는시간,,소매,종합소매점,수퍼마켓,서울특별시,서대문구,충현동,충정로3가,서울특별시 서대문구 충정로3가 465,126.964845533717,37.560273698660104
32989,한국유통,,소매,종합소매점,수퍼마켓,서울특별시,강동구,둔촌2동,둔촌동,서울특별시 강동구 둔촌동 630,127.145054912829,37.5341348997734
33015,인스토어,,소매,종합소매점,수퍼마켓,서울특별시,영등포구,신길3동,신길동,서울특별시 영등포구 신길동 4933,126.90307631556601,37.507221321333795
33024,미니슈퍼,,소매,종합소매점,수퍼마켓,서울특별시,강동구,명일1동,명일동,서울특별시 강동구 명일동 15,127.147048586973,37.5538013497357
33050,오렌지마트,,소매,종합소매점,수퍼마켓,서울특별시,도봉구,창5동,창동,서울특별시 도봉구 창동 820,127.044274243877,37.6563094517868
33097,성수수제화마트,,소매,종합소매점,수퍼마켓,서울특별시,성동구,성수2가3동,성수동2가,서울특별시 성동구 성수동2가 300-1,127.05606927356199,37.5444950328183
33193,온누리,,소매,종합소매점,수퍼마켓,서울특별시,광진구,화양동,화양동,서울특별시 광진구 화양동 24-3,127.067280350677,37.5465844536869
33232,강릉,,소매,종합소매점,수퍼마켓,서울특별시,광진구,구의1동,구의동,서울특별시 광진구 구의동 222-64,127.088923083528,37.5415002926902
33456,강서농협하나로마트홍삼코너,,소매,종합소매점,수퍼마켓,서울특별시,강서구,방화3동,방화동,서울특별시 강서구 방화동 829-2,126.811839764611,37.576763458547504
33502,코사마트,,소매,종합소매점,수퍼마켓,서울특별시,관악구,조원동,신림동,서울특별시 관악구 신림동 542-23,126.910809425256,37.482532111564495
33925,하나로농수산,,소매,종합소매점,수퍼마켓,서울특별시,관악구,보라매동,봉천동,서울특별시 관악구 봉천동 963-1,126.935440551535,37.4869735360947
34121,굴다리마트,,소매,종합소매점,수퍼마켓,서울특별시,금천구,가산동,가산동,서울특별시 금천구 가산동 31-6,126.88261545443198,37.484458367071
34200,매일할인마트,,소매,종합소매점,수퍼마켓,서울특별시,금천구,시흥5동,시흥동,서울특별시 금천구 시흥동 272-9,126.91034142133002,37.450125995017295
34305,한양하이마켓,,소매,종합소매점,수퍼마켓,서울특별시,성동구,왕십리2동,하왕십리동,서울특별시 성동구 하왕십리동 980-37,127.028996334685,37.5605304008114
34343,논현마트,,소매,종합소매점,수퍼마켓,서울특별시,강남구,논현1동,논현동,서울특별시 강남구 논현동 9-14,127.027214166531,37.5182475224082
34374,유림슈퍼,,소매,종합소매점,수퍼마켓,서울특별시,동대문구,답십리2동,답십리동,서울특별시 동대문구 답십리동 19-12,127.05883004374701,37.5670252661196
34491,금님미니슈퍼,,소매,종합소매점,수퍼마켓,서울특별시,성동구,금호2.3가동,금호동3가,서울특별시 성동구 금호동3가 544-1,127.022958236919,37.548794014518705
34686,국산약초,,소매,종합소매점,수퍼마켓,서울특별시,동대문구,제기동,제기동,서울특별시 동대문구 제기동 1015,127.03963941842899,37.5787735173905
34869,성동희망푸드,,소매,종합소매점,수퍼마켓,서울특별시,성동구,왕십리도선동,도선동,서울특별시 성동구 도선동 318,127.031809066461,37.5644640394141
35293,근린식품,,소매,종합소매점,수퍼마켓,서울특별시,동대문구,장안2동,장안동,서울특별시 동대문구 장안동 102-6,127.06997780538201,37.5781244049025
35331,인트로마트,,소매,종합소매점,수퍼마켓,서울특별시,용산구,이태원1동,이태원동,서울특별시 용산구 이태원동 128-2,126.993582173204,37.5342837186122
35644,영마트,,소매,종합소매점,수퍼마켓,서울특별시,마포구,아현동,아현동,서울특별시 마포구 아현동 662-9,126.95108909595801,37.555737182497
35673,이수마트.완구,,소매,종합소매점,수퍼마켓,서울특별시,동대문구,제기동,제기동,서울특별시 동대문구 제기동 252,127.034788900951,37.5826625045818
35859,한남슈퍼,,소매,종합소매점,수퍼마켓,서울특별시,용산구,한남동,한남동,서울특별시 용산구 한남동 726-82,127.00441443627301,37.5399350030916
35942,사랑슈퍼,,소매,종합소매점,수퍼마켓,서울특별시,관악구,중앙동,봉천동,서울특별시 관악구 봉천동 860-13,126.952050855305,37.482959184035295
36158,우리홈마트,,소매,종합소매점,수퍼마켓,서울특별시,금천구,독산4동,독산동,서울특별시 금천구 독산동 184-2,126.905480085967,37.4696158746042
36360,롯데슈퍼,,소매,종합소매점,수퍼마켓,서울특별시,강남구,도곡2동,도곡동,서울특별시 강남구 도곡동 467-6,127.050661376693,37.488135801144296
36377,우일기쁜가게,,소매,종합소매점,수퍼마켓,서울특별시,동대문구,답십리1동,답십리동,서울특별시 동대문구 답십리동 475-102,127.051231077589,37.5726500419499
36427,남수퍼,,소매,종합소매점,수퍼마켓,서울특별시,금천구,가산동,가산동,서울특별시 금천구 가산동 602-41,126.883313940489,37.4838702806284
36468,금강마트,,소매,종합소매점,수퍼마켓,서울특별시,강남구,논현1동,논현동,서울특별시 강남구 논현동 181-15,127.026900465675,37.50755845071561
36528,고려할인마트,,소매,종합소매점,수퍼마켓,서울특별시,마포구,염리동,염리동,서울특별시 마포구 염리동 9-224,126.94765956049801,37.5557517164715
36563,두꺼비,,소매,종합소매점,수퍼마켓,서울특별시,광진구,자양3동,자양동,서울특별시 광진구 자양동 553-15,127.065996968164,37.536068050633794
36624,가락마트,,소매,종합소매점,수퍼마켓,서울특별시,강동구,천호2동,천호동,서울특별시 강동구 천호동 303,127.131336890414,37.547199214074794
36921,에스마트,,소매,종합소매점,수퍼마켓,서울특별시,강동구,길동,길동,서울특별시 강동구 길동 331-3,127.14488424843,37.543135221277794
37452,가락공판장,,소매,종합소매점,수퍼마켓,서울특별시,동대문구,답십리2동,답십리동,서울특별시 동대문구 답십리동 265-5,127.05732970926,37.568409918189396
37694,경기,,소매,종합소매점,수퍼마켓,서울특별시,광진구,자양4동,자양동,서울특별시 광진구 자양동 836-17,127.063583815758,37.5381213589825
37733,성진식품,,소매,종합소매점,수퍼마켓,서울특별시,성동구,성수1가2동,성수동1가,서울특별시 성동구 성수동1가 671-188,127.04403306723101,37.549471108801
38167,gs,,소매,종합소매점,수퍼마켓,서울특별시,광진구,광장동,광장동,서울특별시 광진구 광장동 218-1,127.10598422041201,37.5436670754325
38227,cu,옥수점,소매,종합소매점,수퍼마켓,서울특별시,성동구,옥수동,옥수동,서울특별시 성동구 옥수동 359,127.016530421907,37.542748686824105
38262,현대슈퍼,,소매,종합소매점,수퍼마켓,서울특별시,강동구,천호1동,천호동,서울특별시 강동구 천호동 30-24,127.14279035109101,37.5481118876315
38418,원마트,,소매,종합소매점,수퍼마켓,서울특별시,관악구,인헌동,봉천동,서울특별시 관악구 봉천동 1638-20,126.965895385185,37.4744040271637
38451,삼성할인마트,,소매,종합소매점,수퍼마켓,서울특별시,성동구,옥수동,옥수동,서울특별시 성동구 옥수동 250-7,127.014572155026,37.541074432978704
38757,동도슈퍼,,소매,종합소매점,수퍼마켓,서울특별시,금천구,시흥4동,시흥동,서울특별시 금천구 시흥동 806-15,126.90737854204399,37.4587937980795
39079,곰마트할인판매장,,소매,종합소매점,수퍼마켓,서울특별시,금천구,시흥5동,시흥동,서울특별시 금천구 시흥동 922-56,126.905047162319,37.4489147031484
39247,홈플러스,대치점,소매,종합소매점,수퍼마켓,서울특별시,강남구,대치1동,대치동,서울특별시 강남구 대치동 507-2,127.06290321902,37.49392822730611
39357,홈플러스,E명륜점,소매,종합소매점,수퍼마켓,서울특별시,종로구,혜화동,명륜1가,서울특별시 종로구 명륜1가 36-13,126.99976697973999,37.5871013947599
39425,원프러스마트,,소매,종합소매점,수퍼마켓,서울특별시,마포구,성산1동,성산동,서울특별시 마포구 성산동 114-3,126.914787109277,37.5623560928735
39470,노다지슈퍼,,소매,종합소매점,수퍼마켓,서울특별시,송파구,가락본동,가락동,서울특별시 송파구 가락동 73-4,127.121646100164,37.4963619250063
39699,연금매장,,소매,종합소매점,수퍼마켓,서울특별시,강남구,개포2동,개포동,서울특별시 강남구 개포동 167-4,127.06115818218201,37.4824619128836
39717,초롱슈퍼,,소매,종합소매점,수퍼마켓,서울특별시,강동구,천호2동,천호동,서울특별시 강동구 천호동 466-22,127.120942240188,37.5419141930287
40121,학생문구수퍼,,소매,종합소매점,수퍼마켓,서울특별시,서초구,방배2동,방배동,서울특별시 서초구 방배동 968-28,126.98867584633801,37.4828278417975
40311,중앙마트,,소매,종합소매점,수퍼마켓,서울특별시,강남구,논현1동,논현동,서울특별시 강남구 논현동 193-7,127.03190208768801,37.5082573185133
40423,까치산할인마트,,소매,종합소매점,수퍼마켓,서울특별시,강서구,화곡1동,화곡동,서울특별시 강서구 화곡동 347-6,126.843623333946,37.5324599622824
40512,세계로식자재마트,,소매,종합소매점,수퍼마켓,서울특별시,송파구,잠실본동,잠실동,서울특별시 송파구 잠실동 208-5,127.08554563957199,37.5094957442858
40934,롯데슈퍼,역삼점,소매,종합소매점,수퍼마켓,서울특별시,강남구,역삼1동,역삼동,서울특별시 강남구 역삼동 642-9,127.03632389874399,37.50127425967371
41052,현대마트,,소매,종합소매점,수퍼마켓,서울특별시,구로구,오류2동,항동,서울특별시 구로구 항동 233,126.819558213283,37.4850345175792
41075,동현수퍼마켓,,소매,종합소매점,수퍼마켓,서울특별시,금천구,시흥1동,시흥동,서울특별시 금천구 시흥동 869-7,126.900105517454,37.4583659064924
41115,신원팡팡마트,,소매,종합소매점,수퍼마켓,서울특별시,강북구,번3동,번동,서울특별시 강북구 번동 204,127.043804667524,37.62575155218371
41119,홍파슈퍼,,소매,종합소매점,수퍼마켓,서울특별시,동대문구,제기동,제기동,서울특별시 동대문구 제기동 120-122,127.03992490754,37.587398824283
41204,영도마트,,소매,종합소매점,수퍼마켓,서울특별시,동작구,상도2동,상도동,서울특별시 동작구 상도동 179-8,126.940380065021,37.5047145475366
41223,홈플러스,슈퍼익스프레스태릉점,소매,종합소매점,수퍼마켓,서울특별시,중랑구,중화2동,중화동,서울특별시 중랑구 중화동 314-1,127.07741554876999,37.5992582112826
41274,영동슈퍼,,소매,종합소매점,수퍼마켓,서울특별시,용산구,청파동,청파동1가,서울특별시 용산구 청파동1가 3-99,126.96606309559401,37.549156495245704
41317,럭키마켓,,소매,종합소매점,수퍼마켓,서울특별시,강동구,둔촌2동,둔촌동,서울특별시 강동구 둔촌동 55,127.144229112655,37.5331287446883
41331,월드마트,,소매,종합소매점,수퍼마켓,서울특별시,용산구,한남동,한남동,서울특별시 용산구 한남동 113-2,127.00736328201799,37.5308862731484
41371,꿈매,,소매,종합소매점,수퍼마켓,서울특별시,종로구,종로5.6가동,효제동,서울특별시 종로구 효제동 305-2,127.001827604863,37.572693169977796
41527,대림마트,,소매,종합소매점,수퍼마켓,서울특별시,구로구,고척2동,고척동,서울특별시 구로구 고척동 296,126.855088732253,37.503323949605296
41543,홍보슈퍼,,소매,종합소매점,수퍼마켓,서울특별시,성북구,정릉3동,정릉동,서울특별시 성북구 정릉동 718-1,127.00285035869,37.610590523203705
41557,럭키수퍼,,소매,종합소매점,수퍼마켓,서울특별시,서초구,잠원동,잠원동,서울특별시 서초구 잠원동 50-2,127.015432033716,37.5178435355565
41839,로또슈퍼,,소매,종합소매점,수퍼마켓,서울특별시,구로구,개봉1동,개봉동,서울특별시 구로구 개봉동 63-4,126.84486480488,37.501106964059204
41910,남궁24시슈퍼,,소매,종합소매점,수퍼마켓,서울특별시,구로구,가리봉동,가리봉동,서울특별시 구로구 가리봉동 89-2,126.886862450721,37.484759762165496
41948,다이소,,소매,종합소매점,수퍼마켓,서울특별시,동대문구,이문1동,이문동,서울특별시 동대문구 이문동 305-151,127.061875360511,37.595873935662
41981,영마트,,소매,종합소매점,수퍼마켓,서울특별시,강동구,상일동,상일동,서울특별시 강동구 상일동 248,127.172238725314,37.550006975509206
42101,코사마트,,소매,종합소매점,수퍼마켓,서울특별시,관악구,행운동,봉천동,서울특별시 관악구 봉천동 21-15,126.95717738349899,37.4850769649426
42314,우리슈퍼,,소매,종합소매점,수퍼마켓,서울특별시,중랑구,망우3동,망우동,서울특별시 중랑구 망우동 436-1,127.10030144157,37.590892980404604
42319,엘마트,,소매,종합소매점,수퍼마켓,서울특별시,노원구,상계3.4동,상계동,서울특별시 노원구 상계동 1,127.07737384388001,37.6823425232511
42384,정이슈퍼,,소매,종합소매점,수퍼마켓,서울특별시,동작구,신대방2동,신대방동,서울특별시 동작구 신대방동 363,126.92257816846501,37.4976064401108
42593,플러스마트,,소매,종합소매점,수퍼마켓,서울특별시,동대문구,회기동,회기동,서울특별시 동대문구 회기동 64-43,127.05154264171499,37.5909257240664
42830,할인슈퍼,,소매,종합소매점,수퍼마켓,서울특별시,도봉구,도봉1동,도봉동,서울특별시 도봉구 도봉동 560-6,127.045426406502,37.684926502611496
42847,현대대건,,소매,종합소매점,수퍼마켓,서울특별시,관악구,서림동,신림동,서울특별시 관악구 신림동 1694,126.933784369475,37.474614203772504
43098,미래마트,,소매,종합소매점,수퍼마켓,서울특별시,동대문구,장안2동,장안동,서울특별시 동대문구 장안동 309-3,127.07211988438699,37.5733747255073
43290,현대마트,,소매,종합소매점,수퍼마켓,서울특별시,은평구,대조동,대조동,서울특별시 은평구 대조동 77-10,126.9259930102,37.6104116289133
43300,럭키슈퍼,,소매,종합소매점,수퍼마켓,서울특별시,동작구,상도2동,상도동,서울특별시 동작구 상도동 359-20,126.936674368689,37.5044289538206
43398,영광슈퍼,,소매,종합소매점,수퍼마켓,서울특별시,관악구,신원동,신림동,서울특별시 관악구 신림동 1595-1,126.926795719252,37.4826423669661
43540,대성슈퍼,,소매,종합소매점,수퍼마켓,서울특별시,강북구,번2동,번동,서울특별시 강북구 번동 148-459,127.035186190691,37.62730326057571
43768,웰빙마트,,소매,종합소매점,수퍼마켓,서울특별시,중랑구,면목본동,면목동,서울특별시 중랑구 면목동 89-65,127.092692405923,37.592735941289
43871,태양종합슈퍼,,소매,종합소매점,수퍼마켓,서울특별시,금천구,시흥5동,시흥동,서울특별시 금천구 시흥동 219-3,126.911373703002,37.4529828373845
44041,주공수퍼,,소매,종합소매점,수퍼마켓,서울특별시,노원구,상계8동,상계동,서울특별시 노원구 상계동 666,127.056106692472,37.6616397276889
44062,신화마트,,소매,종합소매점,수퍼마켓,서울특별시,양천구,신월6동,신월동,서울특별시 양천구 신월동 558-7,126.840632908141,37.515869580411604
44094,영한슈퍼,,소매,종합소매점,수퍼마켓,서울특별시,중랑구,상봉2동,상봉동,서울특별시 중랑구 상봉동 121-39,127.08146110703001,37.59351407350079
44144,하백수퍼,,소매,종합소매점,수퍼마켓,서울특별시,구로구,구로4동,구로동,서울특별시 구로구 구로동 736-91,126.88504147566299,37.488599068493706
44147,광장슈퍼,,소매,종합소매점,수퍼마켓,서울특별시,강동구,천호2동,천호동,서울특별시 강동구 천호동 315-16,127.127247498316,37.5465743634057
44215,강서송도병원내매점,,소매,종합소매점,수퍼마켓,서울특별시,강서구,등촌3동,등촌동,서울특별시 강서구 등촌동 669-1,126.842768405164,37.558491471504
44249,대림마을슈퍼,,소매,종합소매점,수퍼마켓,서울특별시,영등포구,대림3동,대림동,서울특별시 영등포구 대림동 653-3,126.89769100216101,37.5034769047027
44327,삼창슈퍼마켓,,소매,종합소매점,수퍼마켓,서울특별시,강북구,삼양동,미아동,서울특별시 강북구 미아동 791-1482,127.014696400842,37.625277804182204
44347,서광슈퍼,,소매,종합소매점,수퍼마켓,서울특별시,강서구,방화3동,방화동,서울특별시 강서구 방화동 860,126.819481454413,37.578912493356
44498,우리마트,,소매,종합소매점,수퍼마켓,서울특별시,송파구,장지동,문정동,서울특별시 송파구 문정동 142,127.13474414074699,37.4873578470027
44599,미미슈퍼,,소매,종합소매점,수퍼마켓,서울특별시,강북구,번2동,번동,서울특별시 강북구 번동 330-3,127.036592915335,37.631540614578206
44690,웰빙홈마트,,소매,종합소매점,수퍼마켓,서울특별시,영등포구,영등포동,영등포동7가,서울특별시 영등포구 영등포동7가 29-28,126.90764671935601,37.525005225421204
44758,경북수퍼,,소매,종합소매점,수퍼마켓,서울특별시,구로구,개봉3동,개봉동,서울특별시 구로구 개봉동 289-2,126.856769688924,37.48802250725821
44845,럭키할인마트,,소매,종합소매점,수퍼마켓,서울특별시,양천구,목5동,목동,서울특별시 양천구 목동 929,126.88262287997802,37.54162054715621
44907,충남미니수퍼,,소매,종합소매점,수퍼마켓,서울특별시,중랑구,면목2동,면목동,서울특별시 중랑구 면목동 133-38,127.082525468476,37.591675210205494
44998,하나마트,수락점,소매,종합소매점,수퍼마켓,서울특별시,노원구,상계1동,상계동,서울특별시 노원구 상계동 1115-4,127.055746916871,37.6775130222192
45015,도매수퍼,,소매,종합소매점,수퍼마켓,서울특별시,중구,황학동,황학동,서울특별시 중구 황학동 583,127.020932963116,37.566924300691106
45038,원마트,,소매,종합소매점,수퍼마켓,서울특별시,강북구,번1동,번동,서울특별시 강북구 번동 465-93,127.030140932448,37.6415523125141
45174,신성할인마트,,소매,종합소매점,수퍼마켓,서울특별시,동대문구,전농1동,전농동,서울특별시 동대문구 전농동 687,127.04783158807699,37.578245192224294
45330,압구정아찌네슈퍼,,소매,종합소매점,수퍼마켓,서울특별시,강남구,압구정동,압구정동,서울특별시 강남구 압구정동 455,127.029167160944,37.5325272323373
45415,한살림서울생활협동조합,미아매장,소매,종합소매점,수퍼마켓,서울특별시,강북구,삼양동,미아동,서울특별시 강북구 미아동 1353-5,127.012829731712,37.6199460920099
45485,핑크마트,,소매,종합소매점,수퍼마켓,서울특별시,동대문구,휘경2동,휘경동,서울특별시 동대문구 휘경동 293-164,127.06024003641001,37.589040028281396
45590,신바람마트,,소매,종합소매점,수퍼마켓,서울특별시,은평구,진관동,진관동,서울특별시 은평구 진관동 140,126.935524426812,37.628257301265
45602,삼성그린마트,,소매,종합소매점,수퍼마켓,서울특별시,관악구,성현동,봉천동,서울특별시 관악구 봉천동 1712-1,126.94779128934401,37.49079651108529
45677,수도슈퍼,,소매,종합소매점,수퍼마켓,서울특별시,성북구,장위3동,장위동,서울특별시 성북구 장위동 52-3,127.05923385220501,37.613197957413
45703,현대슈퍼,,소매,종합소매점,수퍼마켓,서울특별시,송파구,석촌동,석촌동,서울특별시 송파구 석촌동 239-21,127.102142071588,37.499792507939
45825,우리마트,,소매,종합소매점,수퍼마켓,서울특별시,성북구,정릉4동,정릉동,서울특별시 성북구 정릉동 780,127.001874522924,37.6166552570101
45895,동문,,소매,종합소매점,수퍼마켓,서울특별시,동대문구,용신동,용두동,서울특별시 동대문구 용두동 238-36,127.029826090244,37.5750981079588
45915,명랑슈퍼,,소매,종합소매점,수퍼마켓,서울특별시,금천구,독산1동,독산동,서울특별시 금천구 독산동 302-21,126.89191024805099,37.4721835332071
45975,신풍슈퍼,,소매,종합소매점,수퍼마켓,서울특별시,은평구,불광2동,불광동,서울특별시 은평구 불광동 445-338,126.923922214324,37.625998598809296
46040,정우지하매점,,소매,종합소매점,수퍼마켓,서울특별시,영등포구,여의동,여의도동,서울특별시 영등포구 여의도동 13-25,126.921876796045,37.529073547332004
46120,용마슈퍼,,소매,종합소매점,수퍼마켓,서울특별시,중랑구,망우3동,망우동,서울특별시 중랑구 망우동 419-1,127.101755695765,37.5923727616714
46283,럭키슈퍼,,소매,종합소매점,수퍼마켓,서울특별시,양천구,목2동,목동,서울특별시 양천구 목동 497-12,126.87025710456999,37.5444672942422
46477,코사마트나들가게,,소매,종합소매점,수퍼마켓,서울특별시,강서구,등촌2동,등촌동,서울특별시 강서구 등촌동 565-6,126.86321797126001,37.53704727748929
46698,굿모닝마트,,소매,종합소매점,수퍼마켓,서울특별시,성북구,안암동,안암동5가,서울특별시 성북구 안암동5가 11-10,127.029229661202,37.5896450442525
46819,가로판매점,,소매,종합소매점,수퍼마켓,서울특별시,강북구,송천동,미아동,서울특별시 강북구 미아동 58,127.02974546661301,37.6127068970516
46882,지성슈퍼,,소매,종합소매점,수퍼마켓,서울특별시,구로구,구로4동,구로동,서울특별시 구로구 구로동 134-41,126.88964706350401,37.4921925664499
46907,우리할인마트,,소매,종합소매점,수퍼마켓,서울특별시,광진구,화양동,화양동,서울특별시 광진구 화양동 33-1,127.067979908596,37.5458421053926
46936,1바다마트,,소매,종합소매점,수퍼마켓,서울특별시,용산구,용문동,도원동,서울특별시 용산구 도원동 23,126.9549275206,37.5385973487808
46979,동양슈퍼,,소매,종합소매점,수퍼마켓,서울특별시,강남구,논현2동,논현동,서울특별시 강남구 논현동 113,127.03764237418001,37.5175039835731
47040,또순이직매장,,소매,종합소매점,수퍼마켓,서울특별시,관악구,신림동,신림동,서울특별시 관악구 신림동 1457-25,126.923785564917,37.4867598129097
47072,대박마트,,소매,종합소매점,수퍼마켓,서울특별시,종로구,숭인2동,숭인동,서울특별시 종로구 숭인동 1080,127.02197659507601,37.5762767754042
47133,우리할인마트,,소매,종합소매점,수퍼마켓,서울특별시,강동구,천호2동,천호동,서울특별시 강동구 천호동 295-31,127.132941083714,37.5464631290549
47445,키키마트,,소매,종합소매점,수퍼마켓,서울특별시,동작구,노량진1동,본동,서울특별시 동작구 본동 484,126.95446392855801,37.50939034337029
47499,동양마트,,소매,종합소매점,수퍼마켓,서울특별시,광진구,중곡3동,중곡동,서울특별시 광진구 중곡동 189-1,127.081436398082,37.567879109695895
47533,우정마트,,소매,종합소매점,수퍼마켓,서울특별시,중랑구,면목2동,면목동,서울특별시 중랑구 면목동 179-46,127.07919535165001,37.589000205721796
47773,현대할인마트,,소매,종합소매점,수퍼마켓,서울특별시,광진구,광장동,광장동,서울특별시 광진구 광장동 577,127.10172184808701,37.54334639070571
47817,구매매점,,소매,종합소매점,수퍼마켓,서울특별시,중구,필동,예장동,서울특별시 중구 예장동 4-5,126.99024935851801,37.5590790653369
47853,동신푸른마트,,소매,종합소매점,수퍼마켓,서울특별시,성북구,삼선동,삼선동3가,서울특별시 성북구 삼선동3가 26,127.013311544732,37.5886210194961
47897,한아름매점,,소매,종합소매점,수퍼마켓,서울특별시,서초구,서초2동,서초동,서울특별시 서초구 서초동 1321,127.02474750138201,37.4965568416703
48061,삼호마트,,소매,종합소매점,수퍼마켓,서울특별시,서대문구,북가좌2동,북가좌동,서울특별시 서대문구 북가좌동 449,126.913719484501,37.5766367079149
48091,알뜰홈마트,,소매,종합소매점,수퍼마켓,서울특별시,관악구,조원동,신림동,서울특별시 관악구 신림동 1657,126.904692467267,37.482529623288606
48164,원진미니슈퍼,,소매,종합소매점,수퍼마켓,서울특별시,양천구,신정4동,신정동,서울특별시 양천구 신정동 916-10,126.857451783794,37.5256295454113
48240,남희수퍼,,소매,종합소매점,수퍼마켓,서울특별시,구로구,개봉3동,개봉동,서울특별시 구로구 개봉동 284-2,126.85218279174299,37.487761779909796
48249,수정수퍼마켓,,소매,종합소매점,수퍼마켓,서울특별시,마포구,성산2동,성산동,서울특별시 마포구 성산동 200-1,126.907874351954,37.5683473113554
48273,농심가슈퍼마트,,소매,종합소매점,수퍼마켓,서울특별시,양천구,목2동,목동,서울특별시 양천구 목동 231-57,126.86919210159701,37.541555761838204
48408,우성슈퍼,,소매,종합소매점,수퍼마켓,서울특별시,구로구,구로4동,구로동,서울특별시 구로구 구로동 731-9,126.884210731661,37.4904744106808
48519,알뜰슈퍼,,소매,종합소매점,수퍼마켓,서울특별시,서대문구,충현동,북아현동,서울특별시 서대문구 북아현동 1-253,126.95386923420601,37.564123505809704
48609,스마일마트,,소매,종합소매점,수퍼마켓,서울특별시,양천구,신월2동,신월동,서울특별시 양천구 신월동 456-27,126.847909969482,37.5266721528205
48642,가로판매,,소매,종합소매점,수퍼마켓,서울특별시,강남구,역삼1동,역삼동,서울특별시 강남구 역삼동 824-20,127.03083954998999,37.4985802894143
48780,우정마트,,소매,종합소매점,수퍼마켓,서울특별시,강남구,압구정동,신사동,서울특별시 강남구 신사동 652-3,127.037409019986,37.5233409022872
48966,하이마트,,소매,종합소매점,수퍼마켓,서울특별시,도봉구,창1동,창동,서울특별시 도봉구 창동 664-4,127.03724245520901,37.648809739524296
49015,그랜드마트,,소매,종합소매점,수퍼마켓,서울특별시,중랑구,중화1동,중화동,서울특별시 중랑구 중화동 151-3,127.08256094239401,37.600776032323296
49119,제이씨마트,,소매,종합소매점,수퍼마켓,서울특별시,강남구,일원2동,대치동,서울특별시 강남구 대치동 2,127.076421308338,37.497260474491895
49121,수련관매점,,소매,종합소매점,수퍼마켓,서울특별시,은평구,응암2동,응암동,서울특별시 은평구 응암동 6-46,126.92452739936199,37.594206733549704
49207,현대하이퍼마트,,소매,종합소매점,수퍼마켓,서울특별시,강동구,둔촌2동,둔촌동,서울특별시 강동구 둔촌동 30-4,127.14617483963801,37.5311785221905
49291,가락할인마트,,소매,종합소매점,수퍼마켓,서울특별시,성동구,성수1가1동,성수동1가,서울특별시 성동구 성수동1가 241,127.04982573705601,37.538011458601105
49299,서울경기양돈축산업협동조합,,소매,종합소매점,수퍼마켓,서울특별시,강동구,둔촌2동,둔촌동,서울특별시 강동구 둔촌동 81-5,127.14285693667802,37.5304336414439
49328,현대한아름마트,,소매,종합소매점,수퍼마켓,서울특별시,광진구,광장동,광장동,서울특별시 광진구 광장동 569,127.098538863807,37.5417272700536
49407,그랜드마트,,소매,종합소매점,수퍼마켓,서울특별시,강서구,화곡8동,화곡동,서울특별시 강서구 화곡동 330-83,126.847793536274,37.5364472631356
49511,영마트,,소매,종합소매점,수퍼마켓,서울특별시,양천구,신월5동,신월동,서울특별시 양천구 신월동 12-4,126.827028537518,37.5409191885199
49583,애플마트,,소매,종합소매점,수퍼마켓,서울특별시,중랑구,면목2동,면목동,서울특별시 중랑구 면목동 132-12,127.08548708877899,37.5920946540788
49588,신세계이마트에브리데이,암사동점,소매,종합소매점,수퍼마켓,서울특별시,강동구,암사3동,암사동,서울특별시 강동구 암사동 447-12,127.13623827720801,37.55493918461671
49619,경성마트,,소매,종합소매점,수퍼마켓,서울특별시,강남구,압구정동,신사동,서울특별시 강남구 신사동 589,127.029881478522,37.5219277324737
49749,대아마트,,소매,종합소매점,수퍼마켓,서울특별시,노원구,공릉1동,공릉동,서울특별시 노원구 공릉동 571-9,127.07203769743201,37.622850362956704
49758,유원매점,,소매,종합소매점,수퍼마켓,서울특별시,중구,소공동,서소문동,서울특별시 중구 서소문동 75-95,126.973991349748,37.562723274109295
49774,대성수퍼,,소매,종합소매점,수퍼마켓,서울특별시,강동구,길동,길동,서울특별시 강동구 길동 413-10,127.138169672374,37.53660781245829
49810,제일슈퍼,,소매,종합소매점,수퍼마켓,서울특별시,송파구,송파2동,송파동,서울특별시 송파구 송파동 193-7,127.11304964856501,37.5003164274658
49880,하모니마트,,소매,종합소매점,수퍼마켓,서울특별시,송파구,장지동,문정동,서울특별시 송파구 문정동 136,127.133239319254,37.489392230987896
50040,대동슈퍼,,소매,종합소매점,수퍼마켓,서울특별시,성북구,정릉3동,정릉동,서울특별시 성북구 정릉동 712-91,127.00584249228201,37.6112915458224
50173,전주매점,,소매,종합소매점,수퍼마켓,서울특별시,동대문구,답십리2동,답십리동,서울특별시 동대문구 답십리동 66-36,127.058276166292,37.5732560909914
50197,두꺼비마트,,소매,종합소매점,수퍼마켓,서울특별시,성북구,삼선동,동소문동3가,서울특별시 성북구 동소문동3가 15,127.00979893450399,37.589663841665
50211,로그인,수서일원점,소매,종합소매점,수퍼마켓,서울특별시,강남구,수서동,수서동,서울특별시 강남구 수서동 738,127.097244260422,37.4857617083509
50360,퓨어하트왕자네할인마트방,,소매,종합소매점,수퍼마켓,서울특별시,서초구,방배본동,방배동,서울특별시 서초구 방배동 795-1,126.989131309098,37.4935002179361
50422,경기미니슈퍼,,소매,종합소매점,수퍼마켓,서울특별시,구로구,구로2동,구로동,서울특별시 구로구 구로동 404-1,126.88190158911002,37.492146543359794
50670,한강수퍼,,소매,종합소매점,수퍼마켓,서울특별시,강남구,청담동,청담동,서울특별시 강남구 청담동 131-14,127.056477169804,37.522900080398
50711,태영마트,,소매,종합소매점,수퍼마켓,서울특별시,강동구,천호3동,천호동,서울특별시 강동구 천호동 566,127.12940261730199,37.53836363823729
50781,현대마트,,소매,종합소매점,수퍼마켓,서울특별시,동대문구,청량리동,청량리동,서울특별시 동대문구 청량리동 205-279,127.04111494382099,37.5881924050206
51070,영진마트,,소매,종합소매점,수퍼마켓,서울특별시,동대문구,용신동,용두동,서울특별시 동대문구 용두동 255-99,127.02839084853399,37.5714190545975
51108,삼원문구수퍼,,소매,종합소매점,수퍼마켓,서울특별시,광진구,화양동,화양동,서울특별시 광진구 화양동 3-1,127.071701951412,37.544105365011504
51192,우이령마트,,소매,종합소매점,수퍼마켓,서울특별시,강북구,우이동,우이동,서울특별시 강북구 우이동 242-2,127.006664073311,37.6712531557041
51290,하모니마트,,소매,종합소매점,수퍼마켓,서울특별시,서초구,서초4동,서초동,서울특별시 서초구 서초동 1684-1,127.01743183131701,37.4999112163923
51303,서강슈퍼마켓,,소매,종합소매점,수퍼마켓,서울특별시,서대문구,홍은2동,홍은동,서울특별시 서대문구 홍은동 186-25,126.934509289135,37.595396530883
51454,한살림서울소비자생활협동조합평,,소매,종합소매점,수퍼마켓,서울특별시,종로구,평창동,평창동,서울특별시 종로구 평창동 158-1,126.96899104341001,37.6068576084862
51692,현대슈퍼,,소매,종합소매점,수퍼마켓,서울특별시,종로구,교남동,행촌동,서울특별시 종로구 행촌동 210-16,126.962198286534,37.5764962093627
51699,나영할인마트,,소매,종합소매점,수퍼마켓,서울특별시,광진구,중곡4동,중곡동,서울특별시 광진구 중곡동 150-75,127.08776766541,37.5620263293418
51772,하영슈퍼,,소매,종합소매점,수퍼마켓,서울특별시,종로구,종로5.6가동,종로5가,서울특별시 종로구 종로5가 214-6,127.00378068269698,37.5705471661189
51783,슈퍼,,소매,종합소매점,수퍼마켓,서울특별시,광진구,자양4동,자양동,서울특별시 광진구 자양동 58-1,127.065007801014,37.5346365605475
51819,NH농협,유통하나로마트청담점,소매,종합소매점,수퍼마켓,서울특별시,강남구,청담동,청담동,서울특별시 강남구 청담동 43-9,127.044693697579,37.5180928485717
51852,두산슈퍼,,소매,종합소매점,수퍼마켓,서울특별시,관악구,은천동,봉천동,서울특별시 관악구 봉천동 1708-1,126.94440497580798,37.4855402083055
51886,희마트,,소매,종합소매점,수퍼마켓,서울특별시,성북구,월곡1동,하월곡동,서울특별시 성북구 하월곡동 88-315,127.02790216601299,37.6055194596694
51962,대성슈퍼,,소매,종합소매점,수퍼마켓,서울특별시,중랑구,신내1동,신내동,서울특별시 중랑구 신내동 493-13,127.099576298324,37.601267492795294
51985,상신마트,,소매,종합소매점,수퍼마켓,서울특별시,금천구,시흥1동,시흥동,서울특별시 금천구 시흥동 868-35,126.90171951417,37.4592999906045
52061,롯데슈퍼,한남더힐점,소매,종합소매점,수퍼마켓,서울특별시,용산구,한남동,한남동,서울특별시 용산구 한남동 810,127.007294019824,37.5361117720098
52062,현대슈퍼,,소매,종합소매점,수퍼마켓,서울특별시,동작구,신대방2동,신대방동,서울특별시 동작구 신대방동 368-30,126.92057280240499,37.4970745356683
52106,하나마트,,소매,종합소매점,수퍼마켓,서울특별시,구로구,신도림동,신도림동,서울특별시 구로구 신도림동 293-26,126.879273912387,37.5105840262413
52152,슈퍼,,소매,종합소매점,수퍼마켓,서울특별시,성북구,정릉1동,정릉동,서울특별시 성북구 정릉동 24-28,127.020907936749,37.6008212892818
52184,형제슈퍼,,소매,종합소매점,수퍼마켓,서울특별시,중랑구,상봉1동,상봉동,서울특별시 중랑구 상봉동 238-1,127.088529244016,37.601696288672706
52228,365마트,,소매,종합소매점,수퍼마켓,서울특별시,노원구,하계1동,하계동,서울특별시 노원구 하계동 256,127.07331135270799,37.6434400817193
52357,홈할인마트,,소매,종합소매점,수퍼마켓,서울특별시,광진구,중곡2동,중곡동,서울특별시 광진구 중곡동 121-43,127.08619764940599,37.5561934049307
52373,제일마트,,소매,종합소매점,수퍼마켓,서울특별시,중랑구,면목본동,면목동,서울특별시 중랑구 면목동 542-48,127.084465357181,37.5867615552051
52462,서울축협경제사업단,,소매,종합소매점,수퍼마켓,서울특별시,성북구,정릉4동,정릉동,서울특별시 성북구 정릉동 401-46,127.01006551215299,37.6088582050941
52678,서경DC마트,,소매,종합소매점,수퍼마켓,서울특별시,성북구,정릉1동,정릉동,서울특별시 성북구 정릉동 966-7,127.014944368097,37.6039072794591
52737,대복수퍼,,소매,종합소매점,수퍼마켓,서울특별시,관악구,행운동,봉천동,서울특별시 관악구 봉천동 1684-1,126.961863148498,37.4790271150775
52850,현대마트,,소매,종합소매점,수퍼마켓,서울특별시,강서구,등촌3동,등촌동,서울특별시 강서구 등촌동 690,126.842880052523,37.562249868696206
52970,현대마트,,소매,종합소매점,수퍼마켓,서울특별시,구로구,구로1동,구로동,서울특별시 구로구 구로동 685-70,126.87785916963001,37.493261551218794
52986,코사마트,,소매,종합소매점,수퍼마켓,서울특별시,관악구,낙성대동,봉천동,서울특별시 관악구 봉천동 1614-5,126.95520424408001,37.477364544252
52997,선리치코리아,,소매,종합소매점,수퍼마켓,서울특별시,강남구,논현1동,논현동,서울특별시 강남구 논현동 48-2,127.022036711383,37.5127714209564
53078,한살림서울소비자생협광나루매장,광나루매장,소매,종합소매점,수퍼마켓,서울특별시,광진구,광장동,광장동,서울특별시 광진구 광장동 396-4,127.10220617937901,37.545422496540006
53202,사랑수퍼,,소매,종합소매점,수퍼마켓,서울특별시,강동구,천호2동,천호동,서울특별시 강동구 천호동 291-2,127.131971862628,37.548068896027395
53208,코아마트,,소매,종합소매점,수퍼마켓,서울특별시,강남구,개포2동,개포동,서울특별시 강남구 개포동 158-6,127.062214737389,37.4829658867383
53213,충남마트,,소매,종합소매점,수퍼마켓,서울특별시,관악구,신림동,신림동,서울특별시 관악구 신림동 1451-25,126.924178046313,37.4885654858292
53256,엔젤슈퍼마켓,,소매,종합소매점,수퍼마켓,서울특별시,은평구,역촌동,역촌동,서울특별시 은평구 역촌동 25-30,126.91994125710501,37.6059593644745
53337,제일슈퍼,,소매,종합소매점,수퍼마켓,서울특별시,양천구,신정7동,신정동,서울특별시 양천구 신정동 276,126.862143660186,37.5094471185197
53368,반애,,소매,종합소매점,수퍼마켓,서울특별시,강남구,역삼1동,역삼동,서울특별시 강남구 역삼동 749-14,127.03579857214899,37.4955122270338
53459,24시슈퍼,,소매,종합소매점,수퍼마켓,서울특별시,중랑구,망우3동,망우동,서울특별시 중랑구 망우동 460-14,127.097061192289,37.5947877856648
53630,유림슈퍼,,소매,종합소매점,수퍼마켓,서울특별시,도봉구,쌍문1동,쌍문동,서울특별시 도봉구 쌍문동 485-20,127.016263626527,37.6559169960121
53912,영남슈퍼,,소매,종합소매점,수퍼마켓,서울특별시,노원구,공릉1동,공릉동,서울특별시 노원구 공릉동 404-7,127.07170664638201,37.6239650478841
53934,신정매점,,소매,종합소매점,수퍼마켓,서울특별시,강서구,화곡4동,화곡동,서울특별시 강서구 화곡동 477-1,126.85682930370001,37.5382470527285
54004,로즈매점,,소매,종합소매점,수퍼마켓,서울특별시,강남구,대치4동,대치동,서울특별시 강남구 대치동 890-59,127.05203064685499,37.5041585815151
54212,현대마트,,소매,종합소매점,수퍼마켓,서울특별시,영등포구,신길5동,신길동,서울특별시 영등포구 신길동 355-429,126.901582203174,37.502666170792395
54368,단지슈퍼,,소매,종합소매점,수퍼마켓,서울특별시,노원구,중계4동,중계동,서울특별시 노원구 중계동 369-7,127.077969629326,37.6571002414924
54409,우리홈마트,,소매,종합소매점,수퍼마켓,서울특별시,관악구,조원동,신림동,서울특별시 관악구 신림동 563,126.90771030164801,37.4818277133208
54443,하나마트,,소매,종합소매점,수퍼마켓,서울특별시,서초구,양재1동,양재동,서울특별시 서초구 양재동 18-9,127.040503198011,37.482241913781294
54540,이모마트,,소매,종합소매점,수퍼마켓,서울특별시,종로구,종로5.6가동,연지동,서울특별시 종로구 연지동 184,126.99882052456002,37.5732263511707
54550,홍파수퍼,,소매,종합소매점,수퍼마켓,서울특별시,동대문구,제기동,제기동,서울특별시 동대문구 제기동 120-10,127.039986838439,37.5869848483558
54686,롯데슈퍼,,소매,종합소매점,수퍼마켓,서울특별시,구로구,구로5동,구로동,서울특별시 구로구 구로동 1263,126.882759872564,37.5028500605707
54721,종점슈퍼,,소매,종합소매점,수퍼마켓,서울특별시,관악구,청룡동,봉천동,서울특별시 관악구 봉천동 1536-12,126.93976736922701,37.4784524606089
55411,롯데쇼핑,롯데슈퍼점,소매,종합소매점,수퍼마켓,서울특별시,중구,명동,충무로1가,서울특별시 중구 충무로1가 25-8,126.982254271644,37.5610557828714
55436,월남슈퍼,,소매,종합소매점,수퍼마켓,서울특별시,관악구,서림동,신림동,서울특별시 관악구 신림동 102-39,126.941771256022,37.4734515649177
55621,관악공판장,,소매,종합소매점,수퍼마켓,서울특별시,관악구,난향동,신림동,서울특별시 관악구 신림동 676-48,126.917320323419,37.4630661863013
55765,도영마트,,소매,종합소매점,수퍼마켓,서울특별시,광진구,중곡1동,중곡동,서울특별시 광진구 중곡동 254-23,127.077088543103,37.5624569301839
55884,현대슈퍼,,소매,종합소매점,수퍼마켓,서울특별시,구로구,구로3동,구로동,서울특별시 구로구 구로동 1126-14,126.900279760213,37.481966023323395
55972,코리아마트,,소매,종합소매점,수퍼마켓,서울특별시,양천구,신정3동,신정동,서울특별시 양천구 신정동 743-2,126.842339098843,37.5086689947985
56055,빅마트번동점,번동점,소매,종합소매점,수퍼마켓,서울특별시,강북구,번1동,번동,서울특별시 강북구 번동 458-88,127.032388338127,37.6386333948451
56097,리리마트,,소매,종합소매점,수퍼마켓,서울특별시,성북구,종암동,종암동,서울특별시 성북구 종암동 78-106,127.029124608324,37.59947453605611
56149,고가마트,,소매,종합소매점,수퍼마켓,서울특별시,마포구,성산1동,성산동,서울특별시 마포구 성산동 605-6,126.91629083189899,37.5663795209976
56159,현대마트,,소매,종합소매점,수퍼마켓,서울특별시,중랑구,면목본동,면목동,서울특별시 중랑구 면목동 96-6,127.091414884127,37.591635849025394
56163,가양5단지슈퍼,,소매,종합소매점,수퍼마켓,서울특별시,강서구,가양3동,가양동,서울특별시 강서구 가양동 1489,126.862801521113,37.5599926352911
56178,스타슈퍼수산물코너,,소매,종합소매점,수퍼마켓,서울특별시,성북구,성북동,성북동,서울특별시 성북구 성북동 94-1,126.99611887468599,37.594008425379
56370,하아름슈퍼,,소매,종합소매점,수퍼마켓,서울특별시,중랑구,면목2동,면목동,서울특별시 중랑구 면목동 186-60,127.07335556729099,37.59150445976061
56616,한국방송공사내매점,,소매,종합소매점,수퍼마켓,서울특별시,강남구,도곡2동,도곡동,서울특별시 강남구 도곡동 463,127.047186733018,37.486603062311104
56661,진솔마트,,소매,종합소매점,수퍼마켓,서울특별시,중랑구,면목본동,면목동,서울특별시 중랑구 면목동 64-77,127.09152550924,37.585329378988796
56765,동대문소비조합,,소매,종합소매점,수퍼마켓,서울특별시,성동구,용답동,용답동,서울특별시 성동구 용답동 62-2,127.05421186508,37.5652132965753
56775,동일슈퍼,,소매,종합소매점,수퍼마켓,서울특별시,강남구,역삼1동,역삼동,서울특별시 강남구 역삼동 619-18,127.02713108529,37.5011178128053
56811,중국슈퍼,,소매,종합소매점,수퍼마켓,서울특별시,관악구,신원동,신림동,서울특별시 관악구 신림동 1601-2,126.927454164683,37.4816662015909
56824,비타민마트,,소매,종합소매점,수퍼마켓,서울특별시,광진구,구의2동,구의동,서울특별시 광진구 구의동 77-1,127.08936252139401,37.550027636153494
56891,학교매점,,소매,종합소매점,수퍼마켓,서울특별시,금천구,시흥3동,시흥동,서울특별시 금천구 시흥동 24-4,126.904891163127,37.4448855479254
57060,한살림서울생협,반포매장,소매,종합소매점,수퍼마켓,서울특별시,서초구,반포본동,반포동,서울특별시 서초구 반포동 758,126.98905171567499,37.50527628953
57148,이마트에브리데이가양동점가양동점,가양동점,소매,종합소매점,수퍼마켓,서울특별시,강서구,가양2동,가양동,서울특별시 강서구 가양동 1474,126.85471339130899,37.567086667618
57172,운광트레이드,,소매,종합소매점,수퍼마켓,서울특별시,동작구,사당3동,사당동,서울특별시 동작구 사당동 1133,126.969168814502,37.489597359156
57190,홈플러스익스프레스목동점,목동점,소매,종합소매점,수퍼마켓,서울특별시,양천구,목5동,목동,서울특별시 양천구 목동 908-28,126.881083586904,37.5363439083105
57334,남경슈퍼,,소매,종합소매점,수퍼마켓,서울특별시,성북구,안암동,안암동3가,서울특별시 성북구 안암동3가 110-24,127.022714142342,37.5822117448084
57733,동구슈퍼,,소매,종합소매점,수퍼마켓,서울특별시,금천구,독산4동,독산동,서울특별시 금천구 독산동 942,126.905847026094,37.467709045983796
57771,영진이네,,소매,종합소매점,수퍼마켓,서울특별시,동대문구,청량리동,청량리동,서울특별시 동대문구 청량리동 255-1,127.04565537659501,37.5811019495095
57773,샵25,,소매,종합소매점,수퍼마켓,서울특별시,강서구,우장산동,화곡동,서울특별시 강서구 화곡동 1059-28,126.84217370661001,37.544258327573296
57988,충남슈퍼,,소매,종합소매점,수퍼마켓,서울특별시,서대문구,홍제2동,홍제동,서울특별시 서대문구 홍제동 137-20,126.947189553519,37.5867342388275
58055,우리마트,,소매,종합소매점,수퍼마켓,서울특별시,금천구,가산동,가산동,서울특별시 금천구 가산동 235-57,126.890789572127,37.4730470352276
58193,서민마트수퍼마켓,,소매,종합소매점,수퍼마켓,서울특별시,마포구,연남동,연남동,서울특별시 마포구 연남동 240-63,126.923335881303,37.5645067520789
58282,신진슈퍼,,소매,종합소매점,수퍼마켓,서울특별시,종로구,종로5.6가동,종로6가,서울특별시 종로구 종로6가 262-1,127.007310641055,37.570694037665895
58305,전자마트,,소매,종합소매점,수퍼마켓,서울특별시,중구,회현동,봉래동2가,서울특별시 중구 봉래동2가 122-11,126.969506078632,37.5547189980799
58479,헬로마트,,소매,종합소매점,수퍼마켓,서울특별시,도봉구,도봉2동,도봉동,서울특별시 도봉구 도봉동 89-148,127.04590436251999,37.6803621542305
58550,엘라비스,,소매,종합소매점,수퍼마켓,서울특별시,강남구,논현2동,논현동,서울특별시 강남구 논현동 275,127.03716710894501,37.5104718931678
58628,수정슈퍼,,소매,종합소매점,수퍼마켓,서울특별시,도봉구,쌍문3동,쌍문동,서울특별시 도봉구 쌍문동 324,127.027518310574,37.648901174739706
58792,모노링크,영등포점,소매,종합소매점,수퍼마켓,서울특별시,영등포구,문래동,문래동5가,서울특별시 영등포구 문래동5가 19-12,126.88590434663999,37.515764673665295
58931,우리행운마트,,소매,종합소매점,수퍼마켓,서울특별시,은평구,불광2동,불광동,서울특별시 은평구 불광동 451-3,126.927115152467,37.626117778308895
58945,번우슈퍼,,소매,종합소매점,수퍼마켓,서울특별시,강북구,번2동,번동,서울특별시 강북구 번동 435-24,127.03176551400699,37.6342402456522
58992,동서마트,,소매,종합소매점,수퍼마켓,서울특별시,서대문구,신촌동,대신동,서울특별시 서대문구 대신동 125-16,126.946660553493,37.567222055875796
59030,스마일마트,,소매,종합소매점,수퍼마켓,서울특별시,강남구,역삼1동,역삼동,서울특별시 강남구 역삼동 663-13,127.03948579061701,37.5060665936031
59164,대륭매점,,소매,종합소매점,수퍼마켓,서울특별시,영등포구,문래동,문래동5가,서울특별시 영등포구 문래동5가 2,126.887939066568,37.516621818430295
59186,세종슈퍼,,소매,종합소매점,수퍼마켓,서울특별시,종로구,사직동,당주동,서울특별시 종로구 당주동 100,126.973288763045,37.57185372160121
59205,명품매점,,소매,종합소매점,수퍼마켓,서울특별시,영등포구,영등포동,영등포동3가,서울특별시 영등포구 영등포동3가 7,126.905847266561,37.5188524675061
59210,안목수퍼,,소매,종합소매점,수퍼마켓,서울특별시,강북구,번1동,번동,서울특별시 강북구 번동 463-33,127.02804914111799,37.6394717300427
59246,삼성마트,,소매,종합소매점,수퍼마켓,서울특별시,용산구,보광동,보광동,서울특별시 용산구 보광동 105-2,127.00114583019,37.5245445279039
59298,제일DC마트,,소매,종합소매점,수퍼마켓,서울특별시,구로구,구로2동,구로동,서울특별시 구로구 구로동 466-5,126.881458272025,37.4945751679097
59437,정할인마트,,소매,종합소매점,수퍼마켓,서울특별시,도봉구,도봉1동,도봉동,서울특별시 도봉구 도봉동 611,127.041106083224,37.6700064492139
59499,미니슈퍼마켓,,소매,종합소매점,수퍼마켓,서울특별시,영등포구,당산1동,당산동1가,서울특별시 영등포구 당산동1가 9-1,126.899235755589,37.5199713976062
59603,영광슈퍼,,소매,종합소매점,수퍼마켓,서울특별시,서대문구,연희동,연희동,서울특별시 서대문구 연희동 700,126.93557960926701,37.575105858834704
59665,미니마트,,소매,종합소매점,수퍼마켓,서울특별시,서대문구,신촌동,창천동,서울특별시 서대문구 창천동 92-6,126.933173144361,37.5604783104603
59795,동원슈퍼,,소매,종합소매점,수퍼마켓,서울특별시,강남구,도곡2동,도곡동,서울특별시 강남구 도곡동 424-10,127.04444029655599,37.4829496157337
59883,엘슈퍼마켓창동지점,창동지점,소매,종합소매점,수퍼마켓,서울특별시,도봉구,창1동,창동,서울특별시 도봉구 창동 812,127.03514548549101,37.6470986646073
59903,농부마트,,소매,종합소매점,수퍼마켓,서울특별시,강동구,명일2동,명일동,서울특별시 강동구 명일동 48-1,127.154372324123,37.5527006781696
59965,동원마트,,소매,종합소매점,수퍼마켓,서울특별시,중랑구,망우본동,망우동,서울특별시 중랑구 망우동 469-39,127.09771033267499,37.5982347423472
60226,다원앤그린,,소매,종합소매점,수퍼마켓,서울특별시,구로구,가리봉동,가리봉동,서울특별시 구로구 가리봉동 131-19,126.890447766027,37.4801080430764
60482,유진상사,,소매,종합소매점,수퍼마켓,서울특별시,영등포구,영등포동,영등포동2가,서울특별시 영등포구 영등포동2가 166-1,126.91059360652001,37.519184677115504
60577,삼양슈퍼,,소매,종합소매점,수퍼마켓,서울특별시,송파구,마천2동,마천동,서울특별시 송파구 마천동 118-21,127.147251567224,37.4982074869729
60695,한아름슈퍼,,소매,종합소매점,수퍼마켓,서울특별시,동대문구,전농2동,전농동,서울특별시 동대문구 전농동 46-118,127.059625510297,37.5784839022244
60746,삼촌네,,소매,종합소매점,수퍼마켓,서울특별시,은평구,응암3동,응암동,서울특별시 은평구 응암동 701-13,126.91591920644501,37.5842076011236
60852,뉴타임슈퍼,,소매,종합소매점,수퍼마켓,서울특별시,광진구,자양3동,자양동,서울특별시 광진구 자양동 553-501,127.071257785585,37.53429842665079
61015,제일DC마트,,소매,종합소매점,수퍼마켓,서울특별시,금천구,독산2동,독산동,서울특별시 금천구 독산동 1069,126.900267781244,37.4611786969533
61100,신앙촌상회안방학점,방학점,소매,종합소매점,수퍼마켓,서울특별시,도봉구,방학1동,방학동,서울특별시 도봉구 방학동 698-21,127.038249653049,37.664730183569105
61124,경희궁슈퍼,,소매,종합소매점,수퍼마켓,서울특별시,종로구,사직동,내자동,서울특별시 종로구 내자동 169,126.97026868911301,37.5749630351643
61309,주항슈퍼,,소매,종합소매점,수퍼마켓,서울특별시,관악구,은천동,봉천동,서울특별시 관악구 봉천동 900-115,126.943856930061,37.4843098808921
61388,한사월마트,,소매,종합소매점,수퍼마켓,서울특별시,용산구,용산2가동,용산동2가,서울특별시 용산구 용산동2가 1-729,126.981917776024,37.5450233137672
61598,어린매점,,소매,종합소매점,수퍼마켓,서울특별시,광진구,능동,능동,서울특별시 광진구 능동 18-11,127.07828339690701,37.547238517540606
61623,대공원마트,,소매,종합소매점,수퍼마켓,서울특별시,광진구,군자동,군자동,서울특별시 광진구 군자동 211,127.07445876930099,37.5481186621757
61921,혜인슈퍼,,소매,종합소매점,수퍼마켓,서울특별시,강남구,논현1동,논현동,서울특별시 강남구 논현동 194,127.029579540576,37.5068055846443
61942,제일슈퍼,,소매,종합소매점,수퍼마켓,서울특별시,은평구,대조동,대조동,서울특별시 은평구 대조동 14-132,126.928212318162,37.609665929897794
61981,월계슈퍼,,소매,종합소매점,수퍼마켓,서울특별시,노원구,월계3동,월계동,서울특별시 노원구 월계동 320-9,127.060901180864,37.6319258141896
62134,영광굴비직매점,,소매,종합소매점,수퍼마켓,서울특별시,관악구,행운동,봉천동,서울특별시 관악구 봉천동 31-1,126.955118183832,37.4835450036519
62147,의성농심가슈퍼,,소매,종합소매점,수퍼마켓,서울특별시,구로구,오류1동,오류동,서울특별시 구로구 오류동 81-213,126.838309589396,37.495717527998096
62231,이마트에브리데이,,소매,종합소매점,수퍼마켓,서울특별시,중랑구,망우본동,망우동,서울특별시 중랑구 망우동 405-22,127.101287245333,37.5946037893178
62244,새생활슈퍼,,소매,종합소매점,수퍼마켓,서울특별시,관악구,삼성동,신림동,서울특별시 관악구 신림동 808-499,126.930604605035,37.467674397725794
62315,주공마트,,소매,종합소매점,수퍼마켓,서울특별시,강서구,등촌3동,등촌동,서울특별시 강서구 등촌동 702-3,126.848514775839,37.5616472090044
62399,도영슈퍼,,소매,종합소매점,수퍼마켓,서울특별시,동대문구,휘경2동,휘경동,서울특별시 동대문구 휘경동 308-91,127.057185701995,37.587015353519604
62679,대가할인마트,,소매,종합소매점,수퍼마켓,서울특별시,관악구,삼성동,신림동,서울특별시 관악구 신림동 304-103,126.931256547964,37.4655538116133
62702,안목마트,,소매,종합소매점,수퍼마켓,서울특별시,강북구,번1동,번동,서울특별시 강북구 번동 463-33,127.02804914111799,37.6394717300427
62866,서울마트,,소매,종합소매점,수퍼마켓,서울특별시,관악구,행운동,봉천동,서울특별시 관악구 봉천동 100-324,126.960035815271,37.4811645615215
62977,365플러스편의점,동작대방점,소매,종합소매점,수퍼마켓,서울특별시,동작구,대방동,대방동,서울특별시 동작구 대방동 389-3,126.92246479681299,37.5039217457632
63031,현대할인마트,,소매,종합소매점,수퍼마켓,서울특별시,성동구,용답동,용답동,서울특별시 성동구 용답동 44-3,127.05382260141899,37.5628764654524
63117,태양슈퍼,,소매,종합소매점,수퍼마켓,서울특별시,강서구,등촌1동,등촌동,서울특별시 강서구 등촌동 655,126.855598569515,37.5565802004281
63418,방패마트,,소매,종합소매점,수퍼마켓,서울특별시,관악구,남현동,남현동,서울특별시 관악구 남현동 100-14,126.987256235772,37.4665336035466
63509,도복마트,,소매,종합소매점,수퍼마켓,서울특별시,중구,황학동,황학동,서울특별시 중구 황학동 489,127.019730711653,37.5679685458018
63640,유진마트,,소매,종합소매점,수퍼마켓,서울특별시,노원구,중계2.3동,중계동,서울특별시 노원구 중계동 505,127.063801801651,37.639130131047395
63661,현대매점,,소매,종합소매점,수퍼마켓,서울특별시,송파구,잠실6동,신천동,서울특별시 송파구 신천동 11-10,127.105389605001,37.5167119999205
63668,태양슈퍼,,소매,종합소매점,수퍼마켓,서울특별시,구로구,고척1동,고척동,서울특별시 구로구 고척동 326,126.86439193820298,37.501404432392
63723,래미안슈퍼,,소매,종합소매점,수퍼마켓,서울특별시,서대문구,남가좌1동,남가좌동,서울특별시 서대문구 남가좌동 379-2,126.91340864648998,37.5723178874411
63735,럭키마트,,소매,종합소매점,수퍼마켓,서울특별시,광진구,중곡2동,중곡동,서울특별시 광진구 중곡동 55-4,127.08671424764299,37.559306025344604
63764,삼호슈퍼,,소매,종합소매점,수퍼마켓,서울특별시,서대문구,천연동,영천동,서울특별시 서대문구 영천동 100,126.958176950984,37.56935158882779
63889,조은마트,,소매,종합소매점,수퍼마켓,서울특별시,관악구,낙성대동,봉천동,서울특별시 관악구 봉천동 1610-1,126.955107674095,37.4786161538046
63936,충북미니슈퍼,,소매,종합소매점,수퍼마켓,서울특별시,영등포구,양평1동,양평동1가,서울특별시 영등포구 양평동1가 20,126.88567958703999,37.5225113536194
64248,알마트,,소매,종합소매점,수퍼마켓,서울특별시,광진구,능동,능동,서울특별시 광진구 능동 283-15,127.078021110834,37.553832161317395
64320,서울시청,신매점,소매,종합소매점,수퍼마켓,서울특별시,중구,소공동,서소문동,서울특별시 중구 서소문동 111,126.97594634521099,37.5629564980649
64397,알파오메가마트,,소매,종합소매점,수퍼마켓,서울특별시,마포구,망원1동,망원동,서울특별시 마포구 망원동 380-22,126.908865992405,37.555462642799796
64424,태화슈퍼,,소매,종합소매점,수퍼마켓,서울특별시,중랑구,묵1동,묵동,서울특별시 중랑구 묵동 159-24,127.079423668824,37.6173397874431
64581,알뜰슈퍼,,소매,종합소매점,수퍼마켓,서울특별시,강서구,방화1동,방화동,서울특별시 강서구 방화동 609-159,126.81314840315599,37.5656399202584
64602,수입과자판매점,,소매,종합소매점,수퍼마켓,서울특별시,동대문구,이문1동,이문동,서울특별시 동대문구 이문동 305-65,127.06200477626801,37.595487515791
64678,크로바매점,,소매,종합소매점,수퍼마켓,서울특별시,용산구,한강로동,한강로3가,서울특별시 용산구 한강로3가 16-9,126.959600845599,37.5328899510721
64686,은혜슈퍼,,소매,종합소매점,수퍼마켓,서울특별시,광진구,중곡4동,중곡동,서울특별시 광진구 중곡동 271-2,127.088269515153,37.563571000678294
64689,우리슈퍼,,소매,종합소매점,수퍼마켓,서울특별시,중랑구,신내2동,신내동,서울특별시 중랑구 신내동 657,127.09563232895799,37.6108604821915
64934,빙그레슈퍼,,소매,종합소매점,수퍼마켓,서울특별시,서대문구,남가좌2동,남가좌동,서울특별시 서대문구 남가좌동 5-74,126.921295991097,37.581941202024495
65059,케이마트,,소매,종합소매점,수퍼마켓,서울특별시,서초구,방배3동,방배동,서울특별시 서초구 방배동 1028-1,126.999377427843,37.4773504363741
65140,스포츠마트,,소매,종합소매점,수퍼마켓,서울특별시,중구,신당동,신당동,서울특별시 중구 신당동 217-1,127.011051503729,37.5694459536495
65339,태남유통,,소매,종합소매점,수퍼마켓,서울특별시,노원구,중계1동,중계동,서울특별시 노원구 중계동 592,127.073489711229,37.6546233354862
65382,뉴-대중슈퍼,,소매,종합소매점,수퍼마켓,서울특별시,동작구,흑석동,흑석동,서울특별시 동작구 흑석동 93-33,126.962865630044,37.504652811370796
65476,원슈퍼마켓,,소매,종합소매점,수퍼마켓,서울특별시,용산구,서빙고동,서빙고동,서울특별시 용산구 서빙고동 132,126.994534833092,37.520631939268
65492,홈프러스,군자점,소매,종합소매점,수퍼마켓,서울특별시,광진구,중곡2동,중곡동,서울특별시 광진구 중곡동 157-1,127.080023129923,37.5576141668195
65574,럭카할인마트,,소매,종합소매점,수퍼마켓,서울특별시,광진구,중곡2동,중곡동,서울특별시 광진구 중곡동 55-7,127.086541845101,37.559520943609904
65582,세종마트,,소매,종합소매점,수퍼마켓,서울특별시,서초구,방배3동,방배동,서울특별시 서초구 방배동 1018-1,127.000869128183,37.479102098515
65663,동동마트,,소매,종합소매점,수퍼마켓,서울특별시,동대문구,장안2동,장안동,서울특별시 동대문구 장안동 92-14,127.072597849613,37.581388783570496
65802,알뜰미니슈퍼,,소매,종합소매점,수퍼마켓,서울특별시,강서구,방화2동,방화동,서울특별시 강서구 방화동 605-8,126.810939494712,37.5664556484061
66047,현대할인마트,,소매,종합소매점,수퍼마켓,서울특별시,마포구,합정동,합정동,서울특별시 마포구 합정동 387-1,126.91123922805001,37.550258528846506
66218,코사마트,,소매,종합소매점,수퍼마켓,서울특별시,광진구,군자동,군자동,서울특별시 광진구 군자동 49-9,127.075879752283,37.5558517936932
66313,코사마트,,소매,종합소매점,수퍼마켓,서울특별시,동대문구,전농1동,전농동,서울특별시 동대문구 전농동 130-113,127.053605131088,37.580958714004204
66347,삼연슈퍼,,소매,종합소매점,수퍼마켓,서울특별시,송파구,마천1동,마천동,서울특별시 송파구 마천동 373-1,127.154377553451,37.4920954340976
66489,두루미마트,,소매,종합소매점,수퍼마켓,서울특별시,관악구,성현동,봉천동,서울특별시 관악구 봉천동 1703-1,126.95595641425699,37.487499021146704
66516,이마트에브리데이,서초동점,소매,종합소매점,수퍼마켓,서울특별시,서초구,서초4동,서초동,서울특별시 서초구 서초동 1302-4,127.02185569749399,37.5023717663559
66590,농협하나로마트,정릉점,소매,종합소매점,수퍼마켓,서울특별시,성북구,정릉4동,정릉동,서울특별시 성북구 정릉동 401-46,127.01006551215299,37.6088582050941
66716,중앙마트,,소매,종합소매점,수퍼마켓,서울특별시,관악구,조원동,신림동,서울특별시 관악구 신림동 543-7,126.91200994008301,37.481615092657
66739,리마트슈퍼,,소매,종합소매점,수퍼마켓,서울특별시,동대문구,전농2동,전농동,서울특별시 동대문구 전농동 2-2,127.067754507067,37.579377342267705
66767,룰루베리마트,,소매,종합소매점,수퍼마켓,서울특별시,구로구,구로4동,구로동,서울특별시 구로구 구로동 747-4,126.887220594478,37.487295076582
66840,홍파슈퍼,,소매,종합소매점,수퍼마켓,서울특별시,동대문구,제기동,제기동,서울특별시 동대문구 제기동 698,127.03872364079201,37.5848390961419
66947,럭키슈퍼,,소매,종합소매점,수퍼마켓,서울특별시,영등포구,영등포본동,신길동,서울특별시 영등포구 신길동 186-108,126.914238112694,37.513586712450795
67100,나드리마트,,소매,종합소매점,수퍼마켓,서울특별시,관악구,낙성대동,봉천동,서울특별시 관악구 봉천동 1618-1,126.95593767114799,37.477470143373296
67101,하이츠슈퍼,,소매,종합소매점,수퍼마켓,서울특별시,강동구,상일동,상일동,서울특별시 강동구 상일동 476,127.159652814637,37.551116477822
67128,농심가슈퍼,,소매,종합소매점,수퍼마켓,서울특별시,강동구,천호1동,천호동,서울특별시 강동구 천호동 17-6,127.14023742326,37.548688023053
67158,강남마트,,소매,종합소매점,수퍼마켓,서울특별시,서초구,반포4동,반포동,서울특별시 서초구 반포동 19-4,127.00681633008001,37.5064271601893
67160,현대마트,,소매,종합소매점,수퍼마켓,서울특별시,은평구,진관동,진관동,서울특별시 은평구 진관동 101,126.919495244288,37.6328690240986
67281,한살림서울생활협동조합구파발,,소매,종합소매점,수퍼마켓,서울특별시,은평구,진관동,진관동,서울특별시 은평구 진관동 28,126.91743897626999,37.642626310212606
67532,서광마트,,소매,종합소매점,수퍼마켓,서울특별시,종로구,종로1.2.3.4가동,봉익동,서울특별시 종로구 봉익동 115,126.993144738,37.5718535467516
67572,사우나매점,,소매,종합소매점,수퍼마켓,서울특별시,서초구,양재2동,양재동,서울특별시 서초구 양재동 275-6,127.044203782978,37.4775503592858
67835,정신마트,,소매,종합소매점,수퍼마켓,서울특별시,강동구,천호2동,천호동,서울특별시 강동구 천호동 322,127.125619564098,37.5474003003711
67964,홈마트,,소매,종합소매점,수퍼마켓,서울특별시,광진구,중곡4동,중곡동,서울특별시 광진구 중곡동 79-11,127.088780164434,37.55788931807621
68007,목련마트,,소매,종합소매점,수퍼마켓,서울특별시,종로구,사직동,필운동,서울특별시 종로구 필운동 14-2,126.967077443349,37.5781518641174
68054,유진수퍼,,소매,종합소매점,수퍼마켓,서울특별시,광진구,자양4동,자양동,서울특별시 광진구 자양동 846-10,127.066065231408,37.5378526734564
68184,동네슈퍼,,소매,종합소매점,수퍼마켓,서울특별시,용산구,청파동,청파동3가,서울특별시 용산구 청파동3가 118-11,126.96774296216499,37.543873056651705
68370,몽땅슈퍼,,소매,종합소매점,수퍼마켓,서울특별시,동작구,신대방1동,신대방동,서울특별시 동작구 신대방동 600-95,126.911664842078,37.489036553727104
68428,신풍슈퍼,,소매,종합소매점,수퍼마켓,서울특별시,영등포구,신길3동,신길동,서울특별시 영등포구 신길동 302-13,126.906166701478,37.5070427400274
68519,나눔로또판매점,,소매,종합소매점,수퍼마켓,서울특별시,강남구,역삼1동,역삼동,서울특별시 강남구 역삼동 640-21,127.035031186704,37.5024170573264
68603,동일마트,,소매,종합소매점,수퍼마켓,서울특별시,은평구,불광2동,불광동,서울특별시 은평구 불광동 483-11,126.920259830526,37.6238747547528
68626,드림마트,,소매,종합소매점,수퍼마켓,서울특별시,금천구,독산3동,독산동,서울특별시 금천구 독산동 950-7,126.90406073327601,37.4793340530366
68752,조은마트,,소매,종합소매점,수퍼마켓,서울특별시,강서구,화곡2동,화곡동,서울특별시 강서구 화곡동 869-40,126.85188982725,37.5319999999189
68754,솔밭할인마트,,소매,종합소매점,수퍼마켓,서울특별시,강북구,우이동,우이동,서울특별시 강북구 우이동 100-52,127.012256906082,37.6546671223558
68758,유래슈퍼,,소매,종합소매점,수퍼마켓,서울특별시,강서구,방화2동,방화동,서울특별시 강서구 방화동 645-17,126.806474760795,37.56676199413629
68860,플러스할인마트2호점,2호점,소매,종합소매점,수퍼마켓,서울특별시,관악구,신림동,신림동,서울특별시 관악구 신림동 1435-8,126.927283018534,37.485728383021495
69164,홈마트,,소매,종합소매점,수퍼마켓,서울특별시,광진구,중곡2동,중곡동,서울특별시 광진구 중곡동 121-43,127.08619764940599,37.5561934049307
69373,엠에이치밸류,,소매,종합소매점,수퍼마켓,서울특별시,성북구,장위2동,장위동,서울특별시 성북구 장위동 64-66,127.055449766209,37.6114827847636
69376,중앙매점,,소매,종합소매점,수퍼마켓,서울특별시,중구,회현동,남창동,서울특별시 중구 남창동 32-1,126.977706276498,37.5600703949651
69450,G마트,,소매,종합소매점,수퍼마켓,서울특별시,강동구,천호1동,천호동,서울특별시 강동구 천호동 1-2,127.139742163319,37.550423451680295
69484,그랜드마트,,소매,종합소매점,수퍼마켓,서울특별시,성북구,종암동,종암동,서울특별시 성북구 종암동 62-112,127.031996435284,37.59808349209921
69545,상계동시온쇼핑,,소매,종합소매점,수퍼마켓,서울특별시,노원구,상계3.4동,상계동,서울특별시 노원구 상계동 85-8,127.07422362809601,37.6648828659564
69613,상도양곡판매점,,소매,종합소매점,수퍼마켓,서울특별시,동작구,상도3동,상도동,서울특별시 동작구 상도동 324-1,126.931761952017,37.499933455496205
69688,영동슈퍼,,소매,종합소매점,수퍼마켓,서울특별시,은평구,불광2동,불광동,서울특별시 은평구 불광동 422-20,126.92583663779101,37.622069535922996
69939,세탁을위한사람들,,소매,종합소매점,수퍼마켓,서울특별시,중랑구,면목3.8동,면목동,서울특별시 중랑구 면목동 458-27,127.08871171870899,37.583019031320205
70026,원+원마트,,소매,종합소매점,수퍼마켓,서울특별시,성북구,장위1동,장위동,서울특별시 성북구 장위동 237-231,127.05001759663901,37.6173590086344
70045,동남슈퍼,,소매,종합소매점,수퍼마켓,서울특별시,은평구,갈현2동,갈현동,서울특별시 은평구 갈현동 529-2,126.911425603585,37.615206780142294
70115,타이거마트,,소매,종합소매점,수퍼마켓,서울특별시,강동구,천호2동,천호동,서울특별시 강동구 천호동 461-94,127.121239602225,37.5406819610698
70136,롯데슈퍼,서초점,소매,종합소매점,수퍼마켓,서울특별시,서초구,서초4동,서초동,서울특별시 서초구 서초동 1685-8,127.01639342259399,37.495442355068
70208,홈마트,,소매,종합소매점,수퍼마켓,서울특별시,금천구,시흥3동,시흥동,서울특별시 금천구 시흥동 978-4,126.90422263576599,37.434156800749506
70256,대덕마트,,소매,종합소매점,수퍼마켓,서울특별시,강서구,화곡3동,화곡동,서울특별시 강서구 화곡동 1038-13,126.83464110746401,37.5425533533126
70260,준생활용품D.C마트,,소매,종합소매점,수퍼마켓,서울특별시,동대문구,장안1동,장안동,서울특별시 동대문구 장안동 167-7,127.066677669908,37.5695023748064
70416,서강대도서관매점,,소매,종합소매점,수퍼마켓,서울특별시,마포구,대흥동,신수동,서울특별시 마포구 신수동 1-1,126.943045399174,37.551493628889105
70533,한스마트,,소매,종합소매점,수퍼마켓,서울특별시,중랑구,중화2동,중화동,서울특별시 중랑구 중화동 307-1,127.07760513351101,37.60499933695171
70556,미니슈퍼,,소매,종합소매점,수퍼마켓,서울특별시,광진구,군자동,군자동,서울특별시 광진구 군자동 102-13,127.071249459716,37.5523013677934
70879,몬스터코리아,,소매,종합소매점,수퍼마켓,서울특별시,중랑구,면목3.8동,면목동,서울특별시 중랑구 면목동 3-43,127.099225326285,37.5890466385439
70923,나들가게,,소매,종합소매점,수퍼마켓,서울특별시,구로구,오류2동,오류동,서울특별시 구로구 오류동 148-11,126.84338701933399,37.4920640694306
71127,궁동할인마트,,소매,종합소매점,수퍼마켓,서울특별시,구로구,오류1동,오류동,서울특별시 구로구 오류동 27-46,126.843369410092,37.497605302688
71202,조아마트,,소매,종합소매점,수퍼마켓,서울특별시,중구,광희동,인현동2가,서울특별시 중구 인현동2가 190-1,126.995365537903,37.5632765214697
71206,가락매점,,소매,종합소매점,수퍼마켓,서울특별시,송파구,가락본동,가락동,서울특별시 송파구 가락동 80,127.120080194832,37.494881541292294
71315,하나마트,,소매,종합소매점,수퍼마켓,서울특별시,중랑구,면목2동,면목동,서울특별시 중랑구 면목동 140-22,127.081405105302,37.587936169452895
71535,중앙할인마트,,소매,종합소매점,수퍼마켓,서울특별시,관악구,신원동,신림동,서울특별시 관악구 신림동 1614-1,126.92444315528799,37.4811162199275
71653,영훈슈퍼마켓,,소매,종합소매점,수퍼마켓,서울특별시,도봉구,창3동,창동,서울특별시 도봉구 창동 557-5,127.03761123862,37.637793100856
71761,영진슈퍼,,소매,종합소매점,수퍼마켓,서울특별시,동대문구,장안1동,장안동,서울특별시 동대문구 장안동 389-11,127.06859749853001,37.5716890606713
71874,돌곶이슈퍼,,소매,종합소매점,수퍼마켓,서울특별시,성북구,장위2동,장위동,서울특별시 성북구 장위동 76-200,127.05169593312401,37.6172103211845
72569,영민슈퍼,,소매,종합소매점,수퍼마켓,서울특별시,광진구,중곡4동,중곡동,서울특별시 광진구 중곡동 62-32,127.089659434346,37.5591125187493
72582,다나매점,,소매,종합소매점,수퍼마켓,서울특별시,구로구,개봉1동,개봉동,서울특별시 구로구 개봉동 353-2,126.85695376699499,37.4967193539591
72609,조양그린마트,,소매,종합소매점,수퍼마켓,서울특별시,광진구,자양3동,자양동,서울특별시 광진구 자양동 553-502,127.071848218926,37.534131868626
72776,코끼리마트광장점,광장점,소매,종합소매점,수퍼마켓,서울특별시,광진구,광장동,광장동,서울특별시 광진구 광장동 582,127.099644411941,37.542952126691105
72914,행복한마트,,소매,종합소매점,수퍼마켓,서울특별시,송파구,방이2동,방이동,서울특별시 송파구 방이동 159-23,127.118954348974,37.5117770445756
72964,한신슈퍼,,소매,종합소매점,수퍼마켓,서울특별시,마포구,도화동,마포동,서울특별시 마포구 마포동 136-1,126.944380783875,37.537854786307896
72980,홈웨이,,소매,종합소매점,수퍼마켓,서울특별시,광진구,구의1동,구의동,서울특별시 광진구 구의동 655-3,127.082291165017,37.541566075176
72995,굿모닝마트,,소매,종합소매점,수퍼마켓,서울특별시,서대문구,천연동,냉천동,서울특별시 서대문구 냉천동 220,126.964355734837,37.5678561666686
73196,은평구민체육센터매점,,소매,종합소매점,수퍼마켓,서울특별시,은평구,진관동,진관동,서울특별시 은평구 진관동 362,126.923563784036,37.630428388156
73258,충남슈퍼,,소매,종합소매점,수퍼마켓,서울특별시,성북구,월곡1동,하월곡동,서울특별시 성북구 하월곡동 88-279,127.028076485419,37.605178500537
73350,한양슈퍼,,소매,종합소매점,수퍼마켓,서울특별시,관악구,청룡동,봉천동,서울특별시 관악구 봉천동 896-1,126.946440647502,37.480683690751206
73527,농심할인마트,,소매,종합소매점,수퍼마켓,서울특별시,성북구,보문동,보문동5가,서울특별시 성북구 보문동5가 72,127.01969996262501,37.5832680013785
73592,서울경기양돈축산업협동조합하나,,소매,종합소매점,수퍼마켓,서울특별시,강북구,수유2동,수유동,서울특별시 강북구 수유동 270-115,127.019346141789,37.646445788071794
73682,홈플러스구로타운점,구로타운점,소매,종합소매점,수퍼마켓,서울특별시,구로구,구로3동,구로동,서울특별시 구로구 구로동 1130-30,126.898370911534,37.480290311539
73761,두리마트,,소매,종합소매점,수퍼마켓,서울특별시,관악구,조원동,신림동,서울특별시 관악구 신림동 562-7,126.908245348021,37.4823552670016
73767,솔마트,,소매,종합소매점,수퍼마켓,서울특별시,관악구,은천동,봉천동,서울특별시 관악구 봉천동 958-1,126.937322443127,37.485035199401395
73835,경원마트,,소매,종합소매점,수퍼마켓,서울특별시,성북구,정릉4동,정릉동,서울특별시 성북구 정릉동 260-117,127.01014504851001,37.6131117673589
73845,홈플러스익스프레스,옥수점,소매,종합소매점,수퍼마켓,서울특별시,성동구,옥수동,옥수동,서울특별시 성동구 옥수동 447-4,127.01079120257799,37.54118698743021
73876,번우슈퍼,,소매,종합소매점,수퍼마켓,서울특별시,강북구,번2동,번동,서울특별시 강북구 번동 521-3,127.031082788248,37.632720901777
73893,럭키수퍼,,소매,종합소매점,수퍼마켓,서울특별시,구로구,구로4동,구로동,서울특별시 구로구 구로동 1257,126.893648695824,37.4915272944519
73948,예나종합마트,,소매,종합소매점,수퍼마켓,서울특별시,강북구,수유3동,수유동,서울특별시 강북구 수유동 176-1,127.026114741374,37.6418345069985
74218,하이,웨이마트방배점,소매,종합소매점,수퍼마켓,서울특별시,서초구,방배1동,방배동,서울특별시 서초구 방배동 937-1,126.992702634398,37.4869259985654
74270,알뜰할인마트,,소매,종합소매점,수퍼마켓,서울특별시,광진구,군자동,군자동,서울특별시 광진구 군자동 473-17,127.07821969733,37.5570054079385
74291,진선슈퍼,,소매,종합소매점,수퍼마켓,서울특별시,성동구,왕십리2동,하왕십리동,서울특별시 성동구 하왕십리동 889-2,127.02702490536001,37.564163404865
74332,미성슈퍼,,소매,종합소매점,수퍼마켓,서울특별시,강서구,화곡8동,화곡동,서울특별시 강서구 화곡동 409-248,126.84527458222601,37.5361703676832
74363,준마트,,소매,종합소매점,수퍼마켓,서울특별시,송파구,마천1동,마천동,서울특별시 송파구 마천동 311-74,127.153908480716,37.49357883159001
74588,새생활공판장,,소매,종합소매점,수퍼마켓,서울특별시,중랑구,망우3동,망우동,서울특별시 중랑구 망우동 407-1,127.10124444596501,37.594396222917105
74636,나들가게,,소매,종합소매점,수퍼마켓,서울특별시,동작구,상도2동,상도동,서울특별시 동작구 상도동 358-1,126.93615646902501,37.5042621020229
74683,신재매점,,소매,종합소매점,수퍼마켓,서울특별시,강남구,역삼1동,역삼동,서울특별시 강남구 역삼동 678-24,127.038417938032,37.5020211789754
74751,광은마트,,소매,종합소매점,수퍼마켓,서울특별시,종로구,종로1.2.3.4가동,서린동,서울특별시 종로구 서린동 70,126.981093428371,37.569830927873795
74767,서울슈퍼,,소매,종합소매점,수퍼마켓,서울특별시,중랑구,중화2동,중화동,서울특별시 중랑구 중화동 305-17,127.078969962148,37.6026943162792
74870,사러가신풍슈퍼마켓,,소매,종합소매점,수퍼마켓,서울특별시,영등포구,신길3동,신길동,서울특별시 영등포구 신길동 255-9,126.91021331594999,37.506440402277896
74877,중앙슈퍼,,소매,종합소매점,수퍼마켓,서울특별시,도봉구,창2동,창동,서울특별시 도봉구 창동 608-140,127.037602851269,37.645469845613796
75017,태양스토어,,소매,종합소매점,수퍼마켓,서울특별시,성북구,석관동,석관동,서울특별시 성북구 석관동 334-51,127.05702806787599,37.6093779621322
75032,k마트,,소매,종합소매점,수퍼마켓,서울특별시,노원구,하계1동,하계동,서울특별시 노원구 하계동 115-1,127.07022390312099,37.6356848929519
75041,이마트에브리데이명일동점,명일동점,소매,종합소매점,수퍼마켓,서울특별시,강동구,명일1동,명일동,서울특별시 강동구 명일동 15,127.147048586973,37.5538013497357
75204,충남슈퍼,,소매,종합소매점,수퍼마켓,서울특별시,관악구,남현동,남현동,서울특별시 관악구 남현동 602-239,126.981134063617,37.473671401150796
75336,우리슈퍼,,소매,종합소매점,수퍼마켓,서울특별시,서대문구,천연동,옥천동,서울특별시 서대문구 옥천동 74,126.961641883333,37.570093937853706
75367,강서농협하나로마트,,소매,종합소매점,수퍼마켓,서울특별시,강서구,방화3동,방화동,서울특별시 강서구 방화동 829-2,126.811839764611,37.576763458547504
75442,나들가게,,소매,종합소매점,수퍼마켓,서울특별시,금천구,가산동,가산동,서울특별시 금천구 가산동 459-18,126.877686172125,37.4821500175865
75659,종림슈퍼,,소매,종합소매점,수퍼마켓,서울특별시,중구,중림동,중림동,서울특별시 중구 중림동 393-1,126.963904188291,37.557958775037896
75736,지연마트,,소매,종합소매점,수퍼마켓,서울특별시,강서구,화곡본동,화곡동,서울특별시 강서구 화곡동 56-451,126.847877089846,37.5391061334265
75929,영화마트,,소매,종합소매점,수퍼마켓,서울특별시,영등포구,도림동,도림동,서울특별시 영등포구 도림동 216-2,126.89659195892901,37.5089900443303
75974,유림세일마트,,소매,종합소매점,수퍼마켓,서울특별시,양천구,신정4동,신정동,서울특별시 양천구 신정동 968-25,126.853701676974,37.5222863947996
76011,코사마트,,소매,종합소매점,수퍼마켓,서울특별시,양천구,신정2동,신정동,서울특별시 양천구 신정동 294-68,126.87197536306999,37.5175426685455
76045,대명매점,,소매,종합소매점,수퍼마켓,서울특별시,영등포구,양평2동,양평동4가,서울특별시 영등포구 양평동4가 68-1,126.896051431625,37.536466766068
76424,롯데슈퍼,연신내점,소매,종합소매점,수퍼마켓,서울특별시,은평구,갈현1동,갈현동,서울특별시 은평구 갈현동 395-6,126.91988220878099,37.6202221317245
76606,24시강남총판장,,소매,종합소매점,수퍼마켓,서울특별시,서초구,반포1동,반포동,서울특별시 서초구 반포동 708-3,127.020274650978,37.5099815761192
76721,삼정슈퍼,,소매,종합소매점,수퍼마켓,서울특별시,구로구,고척1동,고척동,서울특별시 구로구 고척동 136-6,126.858886529557,37.501991116114205
76806,두산마트,,소매,종합소매점,수퍼마켓,서울특별시,강남구,청담동,청담동,서울특별시 강남구 청담동 127-31,127.052963335816,37.5270167999001
76965,엄마마트,,소매,종합소매점,수퍼마켓,서울특별시,송파구,삼전동,삼전동,서울특별시 송파구 삼전동 6-7,127.090331761264,37.5056401297603
77014,종로슈퍼,,소매,종합소매점,수퍼마켓,서울특별시,종로구,종로5.6가동,효제동,서울특별시 종로구 효제동 233-2,127.00382335731199,37.5715927356611
77048,동우엔앤에프스타슈퍼,성북점,소매,종합소매점,수퍼마켓,서울특별시,성북구,성북동,성북동,서울특별시 성북구 성북동 94-1,126.99611887468599,37.594008425379
77080,신림슈퍼,,소매,종합소매점,수퍼마켓,서울특별시,관악구,서원동,신림동,서울특별시 관악구 신림동 92-191,126.934839244076,37.4783540717586
77138,돈암슈퍼,,소매,종합소매점,수퍼마켓,서울특별시,금천구,독산1동,독산동,서울특별시 금천구 독산동 144-6,126.897623717437,37.476507949362
77190,해피마트24시,,소매,종합소매점,수퍼마켓,서울특별시,영등포구,양평1동,양평동1가,서울특별시 영등포구 양평동1가 243-9,126.887739993235,37.5239364002022
77980,서울마트,,소매,종합소매점,수퍼마켓,서울특별시,광진구,중곡2동,중곡동,서울특별시 광진구 중곡동 138-10,127.082639733066,37.557445305788704
77999,춘천꼬꼬닭갈비,,소매,종합소매점,수퍼마켓,서울특별시,서초구,반포3동,잠원동,서울특별시 서초구 잠원동 69-19,127.00725772418899,37.5072598389135
78065,화운유통,,소매,종합소매점,수퍼마켓,서울특별시,중랑구,면목2동,면목동,서울특별시 중랑구 면목동 183-14,127.07819143663001,37.591443211585
78212,남일마트,,소매,종합소매점,수퍼마켓,서울특별시,중랑구,면목2동,면목동,서울특별시 중랑구 면목동 143-45,127.08178468893999,37.59021876731661
78357,새로나슈퍼,,소매,종합소매점,수퍼마켓,서울특별시,구로구,구로2동,구로동,서울특별시 구로구 구로동 85-13,126.88887653046899,37.4938252245175
78369,원마트,,소매,종합소매점,수퍼마켓,서울특별시,관악구,삼성동,신림동,서울특별시 관악구 신림동 305-26,126.931652019121,37.465566398343206
78448,태양마트,,소매,종합소매점,수퍼마켓,서울특별시,중랑구,면목본동,면목동,서울특별시 중랑구 면목동 69-62,127.092792807965,37.58633027697329
78697,영복슈퍼,,소매,종합소매점,수퍼마켓,서울특별시,관악구,대학동,신림동,서울특별시 관악구 신림동 254-27,126.934656478868,37.4649447657651
78703,한아름마트,,소매,종합소매점,수퍼마켓,서울특별시,관악구,남현동,남현동,서울특별시 관악구 남현동 602-121,126.97833500726601,37.4724938808205
78767,대성슈퍼,,소매,종합소매점,수퍼마켓,서울특별시,강남구,역삼1동,역삼동,서울특별시 강남구 역삼동 635-2,127.03072148372499,37.500714821443296
78808,안방복지매장,,소매,종합소매점,수퍼마켓,서울특별시,도봉구,방학2동,방학동,서울특별시 도봉구 방학동 607-8,127.031992284403,37.6691481063978
78866,동산할인마트,,소매,종합소매점,수퍼마켓,서울특별시,금천구,시흥4동,시흥동,서울특별시 금천구 시흥동 820-45,126.90671685353,37.4537778268475
78944,종암슈퍼,,소매,종합소매점,수퍼마켓,서울특별시,성북구,종암동,종암동,서울특별시 성북구 종암동 8-116,127.03702864053301,37.5951241912977
79221,목화슈퍼,,소매,종합소매점,수퍼마켓,서울특별시,노원구,월계2동,월계동,서울특별시 노원구 월계동 269-5,127.057431785597,37.63302444547271
79230,우리홈마트,,소매,종합소매점,수퍼마켓,서울특별시,양천구,신월2동,신월동,서울특별시 양천구 신월동 468-2,126.84574554657699,37.5254346175601
79253,신도봉마트,,소매,종합소매점,수퍼마켓,서울특별시,도봉구,쌍문3동,쌍문동,서울특별시 도봉구 쌍문동 120-1,127.03213197013399,37.6496599439792
79395,다모아마트,,소매,종합소매점,수퍼마켓,서울특별시,강동구,성내3동,성내동,서울특별시 강동구 성내동 407-15,127.133405169849,37.5317883337833
79575,홈마트,,소매,종합소매점,수퍼마켓,서울특별시,강동구,둔촌2동,둔촌동,서울특별시 강동구 둔촌동 134-6,127.143699614977,37.527979865835796
79621,럭키마트,,소매,종합소매점,수퍼마켓,서울특별시,양천구,신정3동,신정동,서울특별시 양천구 신정동 1277,126.851971192649,37.51118680542061
79649,원타임,장안점,소매,종합소매점,수퍼마켓,서울특별시,동대문구,장안2동,장안동,서울특별시 동대문구 장안동 298-14,127.070621912626,37.5754894120413
79763,홈마트,,소매,종합소매점,수퍼마켓,서울특별시,성북구,삼선동,삼선동5가,서울특별시 성북구 삼선동5가 207,127.01599823169501,37.58838214634179
79772,국제슈퍼,,소매,종합소매점,수퍼마켓,서울특별시,서초구,방배본동,방배동,서울특별시 서초구 방배동 758-2,126.987731877584,37.4966419196027
79792,한살림서울생활협동조합,방배매장,소매,종합소매점,수퍼마켓,서울특별시,서초구,방배1동,방배동,서울특별시 서초구 방배동 894-2,126.99605647413,37.4881078960032
79832,준마트,,소매,종합소매점,수퍼마켓,서울특별시,동대문구,전농2동,전농동,서울특별시 동대문구 전농동 3-2,127.067173484965,37.5787600411223
79852,무지개슈퍼,,소매,종합소매점,수퍼마켓,서울특별시,은평구,신사1동,신사동,서울특별시 은평구 신사동 2-15,126.914626694688,37.59914385973379
79958,중한슈퍼,,소매,종합소매점,수퍼마켓,서울특별시,광진구,자양4동,자양동,서울특별시 광진구 자양동 847-7,127.066423691606,37.5381438444835
79974,동아마트,,소매,종합소매점,수퍼마켓,서울특별시,동대문구,용신동,용두동,서울특별시 동대문구 용두동 252-159,127.02896116850201,37.5737033888616
80030,월드슈퍼,,소매,종합소매점,수퍼마켓,서울특별시,금천구,시흥5동,시흥동,서울특별시 금천구 시흥동 923-46,126.907245830956,37.4484935370759
80266,정릉산장매점,,소매,종합소매점,수퍼마켓,서울특별시,성북구,정릉4동,정릉동,서울특별시 성북구 정릉동 810-3,127.002274716558,37.621461159745
80337,이마트에브리데이,,소매,종합소매점,수퍼마켓,서울특별시,강동구,길동,길동,서울특별시 강동구 길동 247,127.13994521376999,37.534719526899295
80477,컴온24남,,소매,종합소매점,수퍼마켓,서울특별시,동작구,사당5동,사당동,서울특별시 동작구 사당동 231-17,126.968927767697,37.484098834628604
80583,현대마트,,소매,종합소매점,수퍼마켓,서울특별시,도봉구,쌍문4동,쌍문동,서울특별시 도봉구 쌍문동 59,127.031257997592,37.6576178947049
80631,빅토리아슈퍼마켓,,소매,종합소매점,수퍼마켓,서울특별시,강남구,역삼1동,역삼동,서울특별시 강남구 역삼동 705-1,127.04720966477899,37.5043811001854
80639,바이앤바이편,,소매,종합소매점,수퍼마켓,서울특별시,중랑구,중화2동,중화동,서울특별시 중랑구 중화동 315-32,127.076199291019,37.598708071477
80659,영신마트,,소매,종합소매점,수퍼마켓,서울특별시,강동구,천호2동,천호동,서울특별시 강동구 천호동 461-13,127.12231325583001,37.5417622013807
80783,염광마트,,소매,종합소매점,수퍼마켓,서울특별시,도봉구,창1동,창동,서울특별시 도봉구 창동 657-1,127.03711520786301,37.6481329259559
80946,강서수퍼,,소매,종합소매점,수퍼마켓,서울특별시,강서구,등촌1동,등촌동,서울특별시 강서구 등촌동 646-32,126.863485414173,37.552971154706896
80968,안산슈퍼,,소매,종합소매점,수퍼마켓,서울특별시,서대문구,홍제1동,홍제동,서울특별시 서대문구 홍제동 44-361,126.951212432187,37.5800393068857
81078,코사마트,송마트점,소매,종합소매점,수퍼마켓,서울특별시,동대문구,전농1동,전농동,서울특별시 동대문구 전농동 209-79,127.052934905935,37.58024151337779
81135,동아에코빌마트,,소매,종합소매점,수퍼마켓,서울특별시,도봉구,도봉2동,도봉동,서울특별시 도봉구 도봉동 654,127.046984221228,37.6819116451661
81253,한살림서울생활협동조합,금호매장,소매,종합소매점,수퍼마켓,서울특별시,성동구,금호1가동,금호동1가,서울특별시 성동구 금호동1가 633,127.026154629814,37.554497017015294
81317,한아름마트,,소매,종합소매점,수퍼마켓,서울특별시,도봉구,쌍문4동,쌍문동,서울특별시 도봉구 쌍문동 158-1,127.03285515403601,37.6550630597222
81431,정림할인마트,,소매,종합소매점,수퍼마켓,서울특별시,관악구,신원동,신림동,서울특별시 관악구 신림동 1602-1,126.928043582339,37.4815634248772
81436,화인마트,,소매,종합소매점,수퍼마켓,서울특별시,동작구,사당4동,사당동,서울특별시 동작구 사당동 278-4,126.97077728799499,37.481979464874
81526,혜성슈퍼,,소매,종합소매점,수퍼마켓,서울특별시,종로구,종로5.6가동,종로5가,서울특별시 종로구 종로5가 98-8,127.00109870433,37.571326430634606
81553,신협마트,,소매,종합소매점,수퍼마켓,서울특별시,영등포구,여의동,여의도동,서울특별시 영등포구 여의도동 23-4,126.923257539352,37.524319625698396
81608,경성슈퍼,,소매,종합소매점,수퍼마켓,서울특별시,중구,신당동,흥인동,서울특별시 중구 흥인동 111,127.01588748751499,37.5658281278493
81685,연희마트,,소매,종합소매점,수퍼마켓,서울특별시,서대문구,홍은2동,홍은동,서울특별시 서대문구 홍은동 271-1,126.934500698913,37.580907810702
81799,대덕쌀마트,,소매,종합소매점,수퍼마켓,서울특별시,관악구,중앙동,봉천동,서울특별시 관악구 봉천동 887-18,126.94744418533101,37.484909556878705
81822,대림그린마트,,소매,종합소매점,수퍼마켓,서울특별시,성북구,정릉4동,정릉동,서울특별시 성북구 정릉동 1028-1,127.009030549807,37.61515677682
81864,개벽마트,,소매,종합소매점,수퍼마켓,서울특별시,광진구,중곡2동,중곡동,서울특별시 광진구 중곡동 121-1,127.086385846278,37.5574653423339
81978,육일종합슈퍼,,소매,종합소매점,수퍼마켓,서울특별시,중구,명동,다동,서울특별시 중구 다동 51-25,126.980373042125,37.567869448488295
81989,삼천리마트,,소매,종합소매점,수퍼마켓,서울특별시,구로구,오류2동,오류동,서울특별시 구로구 오류동 342,126.840275785692,37.492159712881104
82050,대방영외마트,,소매,종합소매점,수퍼마켓,서울특별시,영등포구,신길7동,신길동,서울특별시 영등포구 신길동 1177,126.923651418783,37.5095010302377
82120,한미슈퍼,,소매,종합소매점,수퍼마켓,서울특별시,강서구,방화1동,방화동,서울특별시 강서구 방화동 286-22,126.815219558461,37.573517690640294
82150,지영슈퍼,,소매,종합소매점,수퍼마켓,서울특별시,성동구,왕십리2동,하왕십리동,서울특별시 성동구 하왕십리동 1000-419,127.02357207703899,37.5607289469866
82198,홈블러스,,소매,종합소매점,수퍼마켓,서울특별시,광진구,중곡4동,중곡동,서울특별시 광진구 중곡동 93-2,127.08882108523899,37.5545287151446
82246,갈현미니슈퍼,,소매,종합소매점,수퍼마켓,서울특별시,은평구,갈현2동,갈현동,서울특별시 은평구 갈현동 522-43,126.911685922302,37.6175518568773
82316,리빙아울렛DC,,소매,종합소매점,수퍼마켓,서울특별시,용산구,용문동,용문동,서울특별시 용산구 용문동 42-8,126.96004289565599,37.5360925540763
82347,88매점,,소매,종합소매점,수퍼마켓,서울특별시,강서구,화곡6동,화곡동,서울특별시 강서구 화곡동 1093-76,126.847173998305,37.55684063167529
82416,대륙마트,,소매,종합소매점,수퍼마켓,서울특별시,구로구,구로2동,구로동,서울특별시 구로구 구로동 415-37,126.88209382925501,37.4929052405582
82460,에덴슈퍼,,소매,종합소매점,수퍼마켓,서울특별시,서초구,방배3동,방배동,서울특별시 서초구 방배동 530-56,126.98939877792499,37.4770042009328
82626,상상마트,,소매,종합소매점,수퍼마켓,서울특별시,도봉구,방학3동,방학동,서울특별시 도봉구 방학동 275,127.032608960233,37.660935767153504
82877,그랜드산업개발신촌마트,,소매,종합소매점,수퍼마켓,서울특별시,마포구,서교동,노고산동,서울특별시 마포구 노고산동 57-1,126.935978990943,37.5549892689804
82968,대부슈퍼,,소매,종합소매점,수퍼마켓,서울특별시,은평구,불광2동,불광동,서울특별시 은평구 불광동 367-1,126.924363515043,37.6213172721475
83014,월드마트,,소매,종합소매점,수퍼마켓,서울특별시,관악구,인헌동,봉천동,서울특별시 관악구 봉천동 1645-6,126.968706156469,37.4738969716458
83133,가나안슈퍼,,소매,종합소매점,수퍼마켓,서울특별시,중랑구,묵2동,묵동,서울특별시 중랑구 묵동 240-162,127.07421610999201,37.611613478643
83139,효성슈퍼,,소매,종합소매점,수퍼마켓,서울특별시,금천구,가산동,가산동,서울특별시 금천구 가산동 143-16,126.89073151539101,37.47697506103329
83170,필매점,,소매,종합소매점,수퍼마켓,서울특별시,강서구,화곡1동,화곡동,서울특별시 강서구 화곡동 349-3,126.844168891459,37.533032956065895
83172,서영슈퍼,,소매,종합소매점,수퍼마켓,서울특별시,금천구,독산1동,독산동,서울특별시 금천구 독산동 147-14,126.89712180492799,37.4745029370255
83315,태영매점,,소매,종합소매점,수퍼마켓,서울특별시,영등포구,여의동,여의도동,서울특별시 영등포구 여의도동 10-2,126.925758567504,37.529784703729895
83337,6단지슈퍼,,소매,종합소매점,수퍼마켓,서울특별시,강남구,수서동,수서동,서울특별시 강남구 수서동 723,127.10572126812299,37.4879616942937
83350,코사마트현대점,,소매,종합소매점,수퍼마켓,서울특별시,동작구,사당3동,사당동,서울특별시 동작구 사당동 169-32,126.97048521733801,37.4876085017118
83455,한일매점,,소매,종합소매점,수퍼마켓,서울특별시,영등포구,당산1동,당산동2가,서울특별시 영등포구 당산동2가 30-2,126.894381680259,37.5223408484734
83523,현대슈퍼,,소매,종합소매점,수퍼마켓,서울특별시,영등포구,양평2동,양평동3가,서울특별시 영등포구 양평동3가 101,126.893773570793,37.5313455633224
83543,삼익마트,,소매,종합소매점,수퍼마켓,서울특별시,동작구,사당1동,사당동,서울특별시 동작구 사당동 303-42,126.970698413382,37.477013971038
83686,365행운마트,,소매,종합소매점,수퍼마켓,서울특별시,강동구,암사1동,암사동,서울특별시 강동구 암사동 489-75,127.134676548993,37.5490528763626
83688,알뜰할인마트,,소매,종합소매점,수퍼마켓,서울특별시,구로구,신도림동,신도림동,서울특별시 구로구 신도림동 394-43,126.880042409442,37.5083567304934
83777,영일슈퍼,,소매,종합소매점,수퍼마켓,서울특별시,양천구,신월1동,신월동,서울특별시 양천구 신월동 103-12,126.834073514267,37.5354025481996
83945,충북인삼농협하나로마트,이수점,소매,종합소매점,수퍼마켓,서울특별시,동작구,사당2동,동작동,서울특별시 동작구 동작동 333,126.981946376905,37.4946279080729
84173,슈퍼할인점,,소매,종합소매점,수퍼마켓,서울특별시,강북구,인수동,수유동,서울특별시 강북구 수유동 305-2,127.012830267446,37.6438865741118
84180,삼육구마트,,소매,종합소매점,수퍼마켓,서울특별시,양천구,목4동,목동,서울특별시 양천구 목동 744-17,126.868316081954,37.5373755678118
84365,풍림마트,,소매,종합소매점,수퍼마켓,서울특별시,성북구,돈암1동,돈암동,서울특별시 성북구 돈암동 632,127.02283100376499,37.5966564027065
84540,행복마트,,소매,종합소매점,수퍼마켓,서울특별시,도봉구,쌍문3동,쌍문동,서울특별시 도봉구 쌍문동 103-219,127.032024434272,37.645721546892204
84563,24서브웨이,,소매,종합소매점,수퍼마켓,서울특별시,동작구,사당2동,사당동,서울특별시 동작구 사당동 132-6,126.981000836142,37.4876456065385
84613,서울남부두레소비자생활협동합,,소매,종합소매점,수퍼마켓,서울특별시,동작구,상도2동,상도동,서울특별시 동작구 상도동 22-108,126.946512254347,37.5053730999811
84680,진로수퍼,,소매,종합소매점,수퍼마켓,서울특별시,강남구,역삼1동,역삼동,서울특별시 강남구 역삼동 673-6,127.039320427684,37.504848824744
84716,엠케이유관악지점럭키할인마트,,소매,종합소매점,수퍼마켓,서울특별시,관악구,행운동,봉천동,서울특별시 관악구 봉천동 1706,126.960593559806,37.484160964314
84764,롯데슈퍼,홍은점,소매,종합소매점,수퍼마켓,서울특별시,서대문구,홍은2동,홍은동,서울특별시 서대문구 홍은동 400-12,126.92652038071199,37.5815923748071
85008,국군복지단사당마트,,소매,종합소매점,수퍼마켓,서울특별시,관악구,남현동,남현동,서울특별시 관악구 남현동 602-220,126.981154732235,37.4721487954119
85107,대성마트,,소매,종합소매점,수퍼마켓,서울특별시,은평구,불광2동,불광동,서울특별시 은평구 불광동 435-5,126.925827481702,37.6234930786901
85132,하나할인마트,,소매,종합소매점,수퍼마켓,서울특별시,마포구,성산1동,성산동,서울특별시 마포구 성산동 56-1,126.91164997402001,37.5648140758985
85304,현대마트,,소매,종합소매점,수퍼마켓,서울특별시,은평구,녹번동,녹번동,서울특별시 은평구 녹번동 28-31,126.93373882578699,37.6057424429531
85438,홈마트강서1호점,강서1호점,소매,종합소매점,수퍼마켓,서울특별시,강서구,가양2동,가양동,서울특별시 강서구 가양동 1479-8,126.850917217371,37.5636709084917
85494,삼성슈퍼,,소매,종합소매점,수퍼마켓,서울특별시,강남구,대치2동,대치동,서울특별시 강남구 대치동 957-3,127.05831238210301,37.5055964529315
85621,코레일편의점,,소매,종합소매점,수퍼마켓,서울특별시,동작구,노량진1동,노량진동,서울특별시 동작구 노량진동 67-2,126.948345320611,37.5157965336133
85792,럭키수퍼,,소매,종합소매점,수퍼마켓,서울특별시,강남구,대치2동,대치동,서울특별시 강남구 대치동 975,127.062291820746,37.5012219426955
85834,슈퍼,,소매,종합소매점,수퍼마켓,서울특별시,금천구,시흥2동,시흥동,서울특별시 금천구 시흥동 230-4,126.916966212816,37.4531333379504
85978,국군복지단35특공마트,,소매,종합소매점,수퍼마켓,서울특별시,관악구,남현동,남현동,서울특별시 관악구 남현동 100-14,126.987256235772,37.4665336035466
86188,우정수퍼,,소매,종합소매점,수퍼마켓,서울특별시,광진구,중곡1동,중곡동,서울특별시 광진구 중곡동 254-2,127.07758875513599,37.562280629575895
86240,우리들유통,,소매,종합소매점,수퍼마켓,서울특별시,은평구,역촌동,역촌동,서울특별시 은평구 역촌동 53-1,126.909794081798,37.6074789039936
86304,롯데슈퍼아차산점,아차산점,소매,종합소매점,수퍼마켓,서울특별시,광진구,구의2동,구의동,서울특별시 광진구 구의동 49-4,127.092157069602,37.5519593848826
86307,서울공,고매점,소매,종합소매점,수퍼마켓,서울특별시,동작구,대방동,대방동,서울특별시 동작구 대방동 390-5,126.922346922332,37.5018933153266
86467,소피텔앰버서더매점,,소매,종합소매점,수퍼마켓,서울특별시,중구,장충동,장충동2가,서울특별시 중구 장충동2가 186-54,127.002102585991,37.560567453998104
86500,남대문마트안경,,소매,종합소매점,수퍼마켓,서울특별시,서대문구,홍제3동,홍제동,서울특별시 서대문구 홍제동 279-48,126.948935205749,37.5962557218252
86618,동민슈퍼,,소매,종합소매점,수퍼마켓,서울특별시,송파구,거여2동,거여동,서울특별시 송파구 거여동 30-14,127.147278659557,37.491846174410604
86637,굿하우스슈퍼,,소매,종합소매점,수퍼마켓,서울특별시,마포구,망원2동,망원동,서울특별시 마포구 망원동 424-25,126.905280361236,37.5584118845318
86818,국군복지단,,소매,종합소매점,수퍼마켓,서울특별시,강서구,공항동,오쇠동,서울특별시 강서구 오쇠동 14-2,126.79979481639201,37.5428620500184
86984,이마트에브리데이,내곡점,소매,종합소매점,수퍼마켓,서울특별시,서초구,내곡동,신원동,서울특별시 서초구 신원동 205-1,127.05625242638901,37.4472723955747
87011,수방사본부마트,,소매,종합소매점,수퍼마켓,서울특별시,관악구,남현동,남현동,서울특별시 관악구 남현동 100-14,126.987256235772,37.4665336035466
87120,돼지슈퍼,,소매,종합소매점,수퍼마켓,서울특별시,강동구,천호2동,천호동,서울특별시 강동구 천호동 331-24,127.12435622283701,37.5451112710228
87150,제일마트,,소매,종합소매점,수퍼마켓,서울특별시,강남구,삼성1동,삼성동,서울특별시 강남구 삼성동 64-8,127.053149063567,37.517692387402704
87157,현대슈퍼,,소매,종합소매점,수퍼마켓,서울특별시,강남구,대치1동,대치동,서울특별시 강남구 대치동 1019-2,127.060754314198,37.4975604460191
87161,영지마트,,소매,종합소매점,수퍼마켓,서울특별시,영등포구,영등포본동,영등포동,서울특별시 영등포구 영등포동 570-17,126.913567137569,37.516175549924895
87195,국군복지단,,소매,종합소매점,수퍼마켓,서울특별시,강서구,화곡6동,화곡동,서울특별시 강서구 화곡동 980-19,126.85162492424699,37.5507479705418
87216,니혼마트,,소매,종합소매점,수퍼마켓,서울특별시,도봉구,창2동,창동,서울특별시 도봉구 창동 624-23,127.035331730542,37.644964738093904
87559,가로판매점,,소매,종합소매점,수퍼마켓,서울특별시,강남구,역삼1동,역삼동,서울특별시 강남구 역삼동 826-20,127.029400510793,37.495297643201
87699,공항유통,,소매,종합소매점,수퍼마켓,서울특별시,영등포구,양평2동,양평동4가,서울특별시 영등포구 양평동4가 51-1,126.896198480249,37.535702256898496
87755,제이지에스코리아,,소매,종합소매점,수퍼마켓,서울특별시,송파구,잠실2동,잠실동,서울특별시 송파구 잠실동 19-9,127.08416804752,37.5120801157417
87763,영식슈퍼,,소매,종합소매점,수퍼마켓,서울특별시,성북구,길음2동,길음동,서울특별시 성북구 길음동 1064-74,127.02594164926501,37.6056114190934
87932,우리슈퍼,,소매,종합소매점,수퍼마켓,서울특별시,양천구,신월1동,신월동,서울특별시 양천구 신월동 100-16,126.833145683062,37.533951727771104
87962,전수슈퍼,,소매,종합소매점,수퍼마켓,서울특별시,서대문구,신촌동,창천동,서울특별시 서대문구 창천동 506-27,126.928702162814,37.558906058973605
88195,대선마트,,소매,종합소매점,수퍼마켓,서울특별시,광진구,중곡2동,중곡동,서울특별시 광진구 중곡동 120-25,127.086603753307,37.5553765913214
88334,가양마트,,소매,종합소매점,수퍼마켓,서울특별시,강서구,가양3동,가양동,서울특별시 강서구 가양동 1485,126.85926942808099,37.563751908716796
88388,준영마트,,소매,종합소매점,수퍼마켓,서울특별시,서대문구,천연동,옥천동,서울특별시 서대문구 옥천동 125,126.959943573862,37.5701150291747
88390,현대매점,,소매,종합소매점,수퍼마켓,서울특별시,영등포구,당산1동,당산동2가,서울특별시 영등포구 당산동2가 30-2,126.894381680259,37.5223408484734
88790,서서울농협하나로마트,사직점,소매,종합소매점,수퍼마켓,서울특별시,종로구,사직동,사직동,서울특별시 종로구 사직동 9,126.968598872078,37.5745519999363
89123,중앙슈퍼,,소매,종합소매점,수퍼마켓,서울특별시,동대문구,전농2동,전농동,서울특별시 동대문구 전농동 46-20,127.058597061853,37.5783405480478
89189,현대슈퍼,,소매,종합소매점,수퍼마켓,서울특별시,동대문구,이문2동,이문동,서울특별시 동대문구 이문동 165-45,127.06566360524599,37.6017337318857
89425,롯데슈퍼,마포점,소매,종합소매점,수퍼마켓,서울특별시,마포구,신수동,구수동,서울특별시 마포구 구수동 60,126.932544513673,37.5458307277001
89428,홈마트,,소매,종합소매점,수퍼마켓,서울특별시,구로구,구로5동,구로동,서울특별시 구로구 구로동 570-60,126.885406278287,37.5028570406676
89483,구내매점,,소매,종합소매점,수퍼마켓,서울특별시,동대문구,제기동,제기동,서울특별시 동대문구 제기동 1132,127.037526580508,37.578440943854
89510,삼호유통,,소매,종합소매점,수퍼마켓,서울특별시,송파구,문정1동,문정동,서울특별시 송파구 문정동 32-2,127.125652822824,37.4883181274245
89670,우리마트,,소매,종합소매점,수퍼마켓,서울특별시,종로구,종로1.2.3.4가동,인의동,서울특별시 종로구 인의동 112-2,126.99706642938801,37.5723374509113
89698,경기매점,,소매,종합소매점,수퍼마켓,서울특별시,중구,명동,삼각동,서울특별시 중구 삼각동 115,126.98321208809901,37.567200132973
89847,하나마트,,소매,종합소매점,수퍼마켓,서울특별시,동작구,사당1동,사당동,서울특별시 동작구 사당동 1045-7,126.977853935445,37.477103122188
89903,다모아마트,,소매,종합소매점,수퍼마켓,서울특별시,강동구,고덕1동,고덕동,서울특별시 강동구 고덕동 501,127.15556266471701,37.5605483731839
89929,에이스할인마트,,소매,종합소매점,수퍼마켓,서울특별시,도봉구,창3동,창동,서울특별시 도봉구 창동 448-7,127.041411821043,37.6400586087372
89973,한국유통,,소매,종합소매점,수퍼마켓,서울특별시,도봉구,창3동,창동,서울특별시 도봉구 창동 503-5,127.04141620294901,37.633544158464204
90098,명류당스타수퍼,,소매,종합소매점,수퍼마켓,서울특별시,강남구,도곡2동,도곡동,서울특별시 강남구 도곡동 467-17,127.054163435442,37.4892992237675
90106,애플할인마트,,소매,종합소매점,수퍼마켓,서울특별시,관악구,은천동,봉천동,서울특별시 관악구 봉천동 904-4,126.943059447615,37.4855371889681
90136,행운마트,,소매,종합소매점,수퍼마켓,서울특별시,서대문구,충현동,북아현동,서울특별시 서대문구 북아현동 180-27,126.954972481191,37.562934893306
90140,하우스D.C마트,,소매,종합소매점,수퍼마켓,서울특별시,동대문구,제기동,제기동,서울특별시 동대문구 제기동 1010,127.04033850246599,37.578995453370105
90525,현대중앙슈퍼,,소매,종합소매점,수퍼마켓,서울특별시,양천구,신월7동,신월동,서울특별시 양천구 신월동 987-1,126.835141407745,37.518392514263795
90575,영광슈퍼,,소매,종합소매점,수퍼마켓,서울특별시,강서구,화곡1동,화곡동,서울특별시 강서구 화곡동 362-42,126.83892735508101,37.5346844932868
90612,동남슈퍼,,소매,종합소매점,수퍼마켓,서울특별시,동대문구,장안1동,장안동,서울특별시 동대문구 장안동 215-13,127.064165728836,37.5666982531426
90669,경동미니슈퍼,,소매,종합소매점,수퍼마켓,서울특별시,동대문구,제기동,제기동,서울특별시 동대문구 제기동 896-10,127.039550642893,37.5812776967514
90805,24시마트,,소매,종합소매점,수퍼마켓,서울특별시,강남구,논현2동,논현동,서울특별시 강남구 논현동 117-1,127.038321865986,37.5165634123603
90852,사랑슈퍼,,소매,종합소매점,수퍼마켓,서울특별시,강남구,도곡2동,도곡동,서울특별시 강남구 도곡동 412-13,127.042481355432,37.484943115968704
90899,미니마트,,소매,종합소매점,수퍼마켓,서울특별시,성북구,정릉2동,정릉동,서울특별시 성북구 정릉동 559-209,127.00905948867701,37.59931677917
90901,대우홈마트,,소매,종합소매점,수퍼마켓,서울특별시,광진구,중곡4동,중곡동,서울특별시 광진구 중곡동 79-8,127.088654028066,37.5580235020633
91045,에코마트,,소매,종합소매점,수퍼마켓,서울특별시,관악구,인헌동,봉천동,서울특별시 관악구 봉천동 1637-10,126.96576284381901,37.4749975628466
91249,신세계이마트에브리데이,삼성동점,소매,종합소매점,수퍼마켓,서울특별시,강남구,삼성1동,삼성동,서울특별시 강남구 삼성동 145,127.05383203299101,37.5128772194951
91295,중앙슈퍼,,소매,종합소매점,수퍼마켓,서울특별시,영등포구,신길4동,신길동,서울특별시 영등포구 신길동 4909-7,126.912562366432,37.505903403489704
91392,삼성홈마트,,소매,종합소매점,수퍼마켓,서울특별시,강남구,도곡2동,도곡동,서울특별시 강남구 도곡동 91-5,127.051491034762,37.489593168683896
91489,사랑마트,,소매,종합소매점,수퍼마켓,서울특별시,중구,황학동,황학동,서울특별시 중구 황학동 607,127.020950413435,37.5664559022875
91528,구내매점,,소매,종합소매점,수퍼마켓,서울특별시,종로구,창신2동,창신동,서울특별시 종로구 창신동 687-28,127.01035948842899,37.572125262979704
91546,신풍천슈퍼,,소매,종합소매점,수퍼마켓,서울특별시,도봉구,방학2동,방학동,서울특별시 도봉구 방학동 616-7,127.03312592525499,37.6673913858911
91562,친환경행운마트,,소매,종합소매점,수퍼마켓,서울특별시,관악구,행운동,봉천동,서울특별시 관악구 봉천동 35-1,126.956369000541,37.48466435339461
91636,국군복지단동빙고마트,,소매,종합소매점,수퍼마켓,서울특별시,용산구,서빙고동,동빙고동,서울특별시 용산구 동빙고동 315,126.99553275601801,37.5255151066623
91647,송죽매점,,소매,종합소매점,수퍼마켓,서울특별시,종로구,종로1.2.3.4가동,청진동,서울특별시 종로구 청진동 136,126.980443243866,37.5710236989066
91874,현대할인마트,,소매,종합소매점,수퍼마켓,서울특별시,광진구,구의1동,구의동,서울특별시 광진구 구의동 225-42,127.08989805551,37.542282716411
91910,개그스토리마트,,소매,종합소매점,수퍼마켓,서울특별시,성북구,길음2동,길음동,서울특별시 성북구 길음동 516-3,127.02872267118,37.6077427714281
92223,하나마트,,소매,종합소매점,수퍼마켓,서울특별시,금천구,가산동,가산동,서울특별시 금천구 가산동 547-7,126.879903006926,37.477557696115106
92290,신사할인마트,,소매,종합소매점,수퍼마켓,서울특별시,은평구,신사2동,신사동,서울특별시 은평구 신사동 338-60,126.91181244872,37.589431846865395
92357,플러스,,소매,종합소매점,수퍼마켓,서울특별시,서대문구,홍제1동,홍제동,서울특별시 서대문구 홍제동 330-57,126.943019611035,37.5893640362915
92384,동부할인마트,,소매,종합소매점,수퍼마켓,서울특별시,성북구,장위1동,장위동,서울특별시 성북구 장위동 233-339,127.04318681201201,37.612969823037
92510,삼화마트,,소매,종합소매점,수퍼마켓,서울특별시,금천구,독산2동,독산동,서울특별시 금천구 독산동 376-4,126.90768546489201,37.4672214668554
92629,신세기할인마트,,소매,종합소매점,수퍼마켓,서울특별시,구로구,오류1동,오류동,서울특별시 구로구 오류동 34-17,126.84461384684099,37.49684258541539
92729,디시아울렛마트,,소매,종합소매점,수퍼마켓,서울특별시,성북구,돈암1동,돈암동,서울특별시 성북구 돈암동 625-2,127.02529777035801,37.6020109564414
92739,한양마트,,소매,종합소매점,수퍼마켓,서울특별시,종로구,숭인2동,숭인동,서울특별시 종로구 숭인동 741,127.02141579030199,37.5767406701206
92803,농심할인마트,,소매,종합소매점,수퍼마켓,서울특별시,마포구,연남동,연남동,서울특별시 마포구 연남동 487-73,126.917810265747,37.5630686320387
92919,신규용마산마트,,소매,종합소매점,수퍼마켓,서울특별시,중랑구,면목7동,면목동,서울특별시 중랑구 면목동 579-3,127.091214904648,37.5782808011149
93039,연세할인마트,,소매,종합소매점,수퍼마켓,서울특별시,구로구,수궁동,궁동,서울특별시 구로구 궁동 188-3,126.833948663428,37.4939896154015
93071,캐이씨씨마트,,소매,종합소매점,수퍼마켓,서울특별시,동작구,사당2동,동작동,서울특별시 동작구 동작동 331,126.978829195033,37.4935017198746
93180,롯데마켓999,삼성역점,소매,종합소매점,수퍼마켓,서울특별시,강남구,대치2동,대치동,서울특별시 강남구 대치동 996-15,127.06582202340799,37.5083592508617
93394,웰빙마트,,소매,종합소매점,수퍼마켓,서울특별시,구로구,구로5동,구로동,서울특별시 구로구 구로동 570-60,126.885406278287,37.5028570406676
93412,슈퍼,,소매,종합소매점,수퍼마켓,서울특별시,구로구,오류2동,항동,서울특별시 구로구 항동 232,126.822261135243,37.476357429402704
93631,번영슈퍼,,소매,종합소매점,수퍼마켓,서울특별시,용산구,보광동,보광동,서울특별시 용산구 보광동 265-593,126.99683271959299,37.5315091177014
93633,24시영마트,,소매,종합소매점,수퍼마켓,서울특별시,중랑구,망우3동,망우동,서울특별시 중랑구 망우동 457-9,127.098885897255,37.5937204763161
93923,강서마트,,소매,종합소매점,수퍼마켓,서울특별시,강서구,등촌1동,등촌동,서울특별시 강서구 등촌동 654-58,126.85739682418101,37.555182994538995
94017,럭키슈퍼,,소매,종합소매점,수퍼마켓,서울특별시,강서구,발산1동,내발산동,서울특별시 강서구 내발산동 722-20,126.83536952524099,37.5481018959236
94048,알파마트,,소매,종합소매점,수퍼마켓,서울특별시,송파구,잠실2동,잠실동,서울특별시 송파구 잠실동 22,127.089869125656,37.5167285829379
94067,영등포농협하나로마트구로본점,구로본점,소매,종합소매점,수퍼마켓,서울특별시,구로구,구로5동,구로동,서울특별시 구로구 구로동 112-15,126.888161417283,37.5001077896069
94088,동네슈퍼,,소매,종합소매점,수퍼마켓,서울특별시,성동구,용답동,용답동,서울특별시 성동구 용답동 83-9,127.051785168353,37.56466221331021
94221,제일슈퍼,,소매,종합소매점,수퍼마켓,서울특별시,동작구,노량진1동,본동,서울특별시 동작구 본동 51-11,126.95590831555201,37.511259279044204
94305,럭키슈퍼,,소매,종합소매점,수퍼마켓,서울특별시,노원구,중계1동,중계동,서울특별시 노원구 중계동 362-1,127.074929588492,37.6463541190089
94411,미루마트,,소매,종합소매점,수퍼마켓,서울특별시,동대문구,이문2동,이문동,서울특별시 동대문구 이문동 250-1,127.06245005296199,37.6042221538973
94551,양지슈퍼,,소매,종합소매점,수퍼마켓,서울특별시,관악구,청룡동,봉천동,서울특별시 관악구 봉천동 1572-10,126.94988057541201,37.4780652216904
94629,365할인마트,,소매,종합소매점,수퍼마켓,서울특별시,도봉구,도봉1동,도봉동,서울특별시 도봉구 도봉동 582-24,127.044807351365,37.6810380563741
94798,가로판매점,,소매,종합소매점,수퍼마켓,서울특별시,중랑구,중화1동,중화동,서울특별시 중랑구 중화동 294-7,127.080249095971,37.599064076708295
94833,홈마트,,소매,종합소매점,수퍼마켓,서울특별시,서초구,서초3동,서초동,서울특별시 서초구 서초동 1539-10,127.00871677427,37.4884400664774
95307,후레쉬애비뉴,,소매,종합소매점,수퍼마켓,서울특별시,강남구,역삼1동,역삼동,서울특별시 강남구 역삼동 668-5,127.03629633805099,37.5034185460664
95322,두암슈퍼,,소매,종합소매점,수퍼마켓,서울특별시,강서구,화곡8동,화곡동,서울특별시 강서구 화곡동 341-31,126.847520774211,37.532849467544295
95553,정성슈퍼,,소매,종합소매점,수퍼마켓,서울특별시,동대문구,장안2동,장안동,서울특별시 동대문구 장안동 117-12,127.06900292241501,37.5773147892153
95722,한국마트,,소매,종합소매점,수퍼마켓,서울특별시,은평구,대조동,대조동,서울특별시 은평구 대조동 89-270,126.921812776961,37.611256519653296
95755,크로바마트,,소매,종합소매점,수퍼마켓,서울특별시,중랑구,상봉1동,상봉동,서울특별시 중랑구 상봉동 286-20,127.08981216057501,37.6023639516521
95805,우성할인마트,,소매,종합소매점,수퍼마켓,서울특별시,강남구,개포1동,개포동,서울특별시 강남구 개포동 652,127.056076822344,37.4846200104981
95899,리버뷰슈퍼,,소매,종합소매점,수퍼마켓,서울특별시,강남구,청담동,청담동,서울특별시 강남구 청담동 68-19,127.055286854296,37.522196753985
96024,쉼터슈퍼,,소매,종합소매점,수퍼마켓,서울특별시,도봉구,쌍문1동,쌍문동,서울특별시 도봉구 쌍문동 478-91,127.017373932188,37.654223301616796
96067,새마을매점,,소매,종합소매점,수퍼마켓,서울특별시,강남구,대치2동,대치동,서울특별시 강남구 대치동 1008-4,127.06714826184601,37.5026750534539
96397,영지할인마트,,소매,종합소매점,수퍼마켓,서울특별시,중랑구,면목본동,면목동,서울특별시 중랑구 면목동 555-23,127.085579900813,37.5845085693786
96408,가로매점,,소매,종합소매점,수퍼마켓,서울특별시,강북구,송중동,미아동,서울특별시 강북구 미아동 35-4,127.030705338412,37.6120570272588
96444,경남그린마트,,소매,종합소매점,수퍼마켓,서울특별시,서초구,방배3동,방배동,서울특별시 서초구 방배동 1028-1,126.999377427843,37.4773504363741
96614,빌라슈퍼,,소매,종합소매점,수퍼마켓,서울특별시,성북구,정릉3동,정릉동,서울특별시 성북구 정릉동 924-2,126.99836509871,37.606371728339
96636,목동테니스샵매점,,소매,종합소매점,수퍼마켓,서울특별시,양천구,목1동,목동,서울특별시 양천구 목동 915,126.876499970634,37.528118955500496
96643,동주마트,,소매,종합소매점,수퍼마켓,서울특별시,중구,을지로동,을지로5가,서울특별시 중구 을지로5가 274-11,127.00195665973801,37.5655670128644
96826,로고마트,,소매,종합소매점,수퍼마켓,서울특별시,도봉구,창3동,창동,서울특별시 도봉구 창동 474-48,127.04254848675501,37.6353644344167
96830,행복마트,,소매,종합소매점,수퍼마켓,서울특별시,노원구,상계1동,상계동,서울특별시 노원구 상계동 1265,127.056984635375,37.6818298487739
96886,럭키마트,,소매,종합소매점,수퍼마켓,서울특별시,강서구,우장산동,화곡동,서울특별시 강서구 화곡동 1057-7,126.84161874513,37.544288925807
96923,힐마트,,소매,종합소매점,수퍼마켓,서울특별시,강북구,번2동,번동,서울특별시 강북구 번동 148-131,127.037148548127,37.627112052019896
96960,정선슈퍼,,소매,종합소매점,수퍼마켓,서울특별시,서대문구,홍제1동,홍제동,서울특별시 서대문구 홍제동 56,126.950997544925,37.5808303103049
97125,에이비씨슈퍼,,소매,종합소매점,수퍼마켓,서울특별시,영등포구,당산2동,당산동4가,서울특별시 영등포구 당산동4가 94-1,126.89779561053999,37.5278961434313
97216,모노링크,종로점,소매,종합소매점,수퍼마켓,서울특별시,종로구,청운효자동,청운동,서울특별시 종로구 청운동 50-31,126.96957663008101,37.5865713850259
97330,한살림서울소비자생활협동조합,,소매,종합소매점,수퍼마켓,서울특별시,서초구,잠원동,잠원동,서울특별시 서초구 잠원동 52-2,127.01339316231501,37.517186775345
97443,빌보드매점,,소매,종합소매점,수퍼마켓,서울특별시,광진구,광장동,광장동,서울특별시 광진구 광장동 319-33,127.107951436124,37.5457183340134
97561,한살림서울소비자생활협동조합,,소매,종합소매점,수퍼마켓,서울특별시,강동구,강일동,강일동,서울특별시 강동구 강일동 730,127.172910134063,37.556841686599796
97600,흥인식품,,소매,종합소매점,수퍼마켓,서울특별시,중구,신당동,흥인동,서울특별시 중구 흥인동 63,127.017190035946,37.565766895033704
97711,이비즈마트,,소매,종합소매점,수퍼마켓,서울특별시,광진구,중곡2동,중곡동,서울특별시 광진구 중곡동 47-24,127.081738272417,37.5608082240834
97926,제이유통,,소매,종합소매점,수퍼마켓,서울특별시,노원구,중계2.3동,중계동,서울특별시 노원구 중계동 503,127.063990438068,37.6430601458511
98027,동아마트,,소매,종합소매점,수퍼마켓,서울특별시,강북구,미아동,미아동,서울특별시 강북구 미아동 258-70,127.031293209152,37.62785703694829
98057,재연,,소매,종합소매점,수퍼마켓,서울특별시,광진구,자양2동,자양동,서울특별시 광진구 자양동 680-24,127.085436533986,37.5332647463065
98157,삼봉마트,,소매,종합소매점,수퍼마켓,서울특별시,금천구,가산동,가산동,서울특별시 금천구 가산동 235-18,126.89247796226299,37.4727835482343
98597,비젼슈퍼,,소매,종합소매점,수퍼마켓,서울특별시,중구,광희동,인현동2가,서울특별시 중구 인현동2가 183-13,126.995563505005,37.562863726040604
98665,한아름수퍼,,소매,종합소매점,수퍼마켓,서울특별시,강북구,송천동,미아동,서울특별시 강북구 미아동 637-74,127.022974427347,37.6142638885308
98811,양천구해누리푸드마켓,,소매,종합소매점,수퍼마켓,서울특별시,양천구,신정3동,신정동,서울특별시 양천구 신정동 1032-12,126.853707707126,37.5189345896531
98829,한살림서울생활협동조합,개포매장,소매,종합소매점,수퍼마켓,서울특별시,강남구,개포4동,개포동,서울특별시 강남구 개포동 655-4,127.05300409012699,37.4808109723981
99019,지엔씨스타슈퍼,도곡점,소매,종합소매점,수퍼마켓,서울특별시,강남구,도곡2동,도곡동,서울특별시 강남구 도곡동 467-17,127.054163435442,37.4892992237675
99162,에이원슈퍼,,소매,종합소매점,수퍼마켓,서울특별시,강서구,가양1동,가양동,서울특별시 강서구 가양동 1461,126.846525352569,37.5710165341776
99424,우리슈퍼,,소매,종합소매점,수퍼마켓,서울특별시,금천구,독산4동,독산동,서울특별시 금천구 독산동 945-3,126.904917808438,37.4670877235143
99810,명일할인마트,,소매,종합소매점,수퍼마켓,서울특별시,강동구,명일2동,명일동,서울특별시 강동구 명일동 68,127.154663014038,37.5490084320179
99957,형제수퍼,,소매,종합소매점,수퍼마켓,서울특별시,용산구,이촌2동,이촌동,서울특별시 용산구 이촌동 206-27,126.95430788526801,37.5270584911303
100146,유진슈퍼,,소매,종합소매점,수퍼마켓,서울특별시,성북구,보문동,보문동1가,서울특별시 성북구 보문동1가 192,127.020622130696,37.5846091982774
100336,지오푸드,,소매,종합소매점,수퍼마켓,서울특별시,강북구,송중동,미아동,서울특별시 강북구 미아동 75-297,127.032230287607,37.6149979173769
100364,늘푸른마트,,소매,종합소매점,수퍼마켓,서울특별시,은평구,진관동,진관동,서울특별시 은평구 진관동 92,126.933797384628,37.637333083021105
100412,행복만복,,소매,종합소매점,수퍼마켓,서울특별시,성북구,정릉4동,정릉동,서울특별시 성북구 정릉동 966-41,127.00238374971902,37.6200834979376
100454,안성슈퍼,,소매,종합소매점,수퍼마켓,서울특별시,중랑구,상봉2동,상봉동,서울특별시 중랑구 상봉동 84-13,127.092194858528,37.5945432164075
100858,동네슈퍼,,소매,종합소매점,수퍼마켓,서울특별시,중랑구,중화2동,중화동,서울특별시 중랑구 중화동 310-8,127.07736316994301,37.6025826510601
100868,우리마트,,소매,종합소매점,수퍼마켓,서울특별시,강서구,화곡4동,화곡동,서울특별시 강서구 화곡동 776-1,126.86311976523001,37.5330817681033
100968,샘매점,,소매,종합소매점,수퍼마켓,서울특별시,용산구,보광동,보광동,서울특별시 용산구 보광동 222-8,126.99981031022,37.5271282463903
101010,플러스1000,,소매,종합소매점,수퍼마켓,서울특별시,중랑구,중화2동,중화동,서울특별시 중랑구 중화동 314-1,127.07741554876999,37.5992582112826
101079,개미슈퍼,,소매,종합소매점,수퍼마켓,서울특별시,용산구,청파동,서계동,서울특별시 용산구 서계동 39,126.967272508291,37.5525459906769
101091,중앙슈퍼,,소매,종합소매점,수퍼마켓,서울특별시,구로구,고척2동,고척동,서울특별시 구로구 고척동 164-72,126.853978062017,37.5042142201096
101094,플러스,,소매,종합소매점,수퍼마켓,서울특별시,중랑구,상봉2동,상봉동,서울특별시 중랑구 상봉동 90-59,127.088329478066,37.5957929062493
101097,거북이동네슈퍼,,소매,종합소매점,수퍼마켓,서울특별시,종로구,종로1.2.3.4가동,낙원동,서울특별시 종로구 낙원동 213-2,126.988881215528,37.571537783082206
101156,국민아지트수퍼,,소매,종합소매점,수퍼마켓,서울특별시,성북구,정릉3동,정릉동,서울특별시 성북구 정릉동 957-2,126.994313867442,37.6103288651167
101157,우양상사,,소매,종합소매점,수퍼마켓,서울특별시,동대문구,회기동,회기동,서울특별시 동대문구 회기동 60-111,127.04909897245899,37.5916449172681
101162,정가할인마트,,소매,종합소매점,수퍼마켓,서울특별시,용산구,청파동,청파동3가,서울특별시 용산구 청파동3가 82-1,126.969648495536,37.5419074019716
101254,유정유통,,소매,종합소매점,수퍼마켓,서울특별시,마포구,아현동,공덕동,서울특별시 마포구 공덕동 256-5,126.953170402304,37.5453035676337
101294,월드마트,,소매,종합소매점,수퍼마켓,서울특별시,중랑구,신내2동,신내동,서울특별시 중랑구 신내동 660,127.09488120390301,37.6092869089136
101310,송학마트,,소매,종합소매점,수퍼마켓,서울특별시,동작구,사당3동,사당동,서울특별시 동작구 사당동 175-5,126.969846561924,37.4912972490107
101334,제일슈퍼,,소매,종합소매점,수퍼마켓,서울특별시,강남구,일원1동,일원동,서울특별시 강남구 일원동 711,127.090980877591,37.4931474348961
101354,미니할인마트,,소매,종합소매점,수퍼마켓,서울특별시,영등포구,영등포본동,영등포동,서울특별시 영등포구 영등포동 620-319,126.908053228877,37.5126376610349
101417,남강매점,,소매,종합소매점,수퍼마켓,서울특별시,서초구,서초2동,서초동,서울특별시 서초구 서초동 1340-6,127.03139155869499,37.489114717601794
101512,낙원마트,,소매,종합소매점,수퍼마켓,서울특별시,종로구,종로1.2.3.4가동,낙원동,서울특별시 종로구 낙원동 64-1,126.988234900987,37.5732892760553
101563,낙원할인마트,,소매,종합소매점,수퍼마켓,서울특별시,금천구,시흥4동,시흥동,서울특별시 금천구 시흥동 813-63,126.90576213248801,37.4587968625754
